,Hotel_Address,lat,lng,City,Country,lat_updated,lon_updated
0, s Gravesandestraat 55 Oost 1092 AA Amsterdam Netherlands,52.3605759,4.9159683,Amsterdam,Nederland,52.3730796,4.8924534
1,1 15 Templeton Place Earl s Court Kensington and Chelsea London SW5 9NB United Kingdom,51.4918878,-0.1949706,London,United Kingdom,51.4893335,-0.144055085
2,1 2 Serjeant s Inn Fleet Street City of London London EC4Y 1LL United Kingdom,51.5137335,-0.1087512,City of London,United Kingdom,51.5156177,-0.0919983
3,1 3 Queens Garden Westminster Borough London W2 3BA United Kingdom,51.5142184,-0.1809032,London,United Kingdom,51.4893335,-0.144055085
4,1 3 Rue d Argentine 16th arr 75116 Paris France,48.8743481,2.2897334,Paris,France,48.8534951,2.3483915
5,1 5 Passage Ruelle 18th arr 75018 Paris France,48.88657,2.3588332,Paris,France,48.8534951,2.3483915
6,1 8 Russell Square Camden London WC1B 5BE United Kingdom,51.5226217,-0.1251602,London,United Kingdom,51.4893335,-0.144055085
7,1 Addington Street Lambeth London SE1 7RY United Kingdom,51.5014001,-0.1160092,London,United Kingdom,51.4893335,-0.144055085
8,1 Aldwych Westminster Borough London WC2B 4BZ United Kingdom,51.5117832,-0.1194172,London,United Kingdom,51.4893335,-0.144055085
9,1 Avenue Carnot 17th arr 75017 Paris France,48.874707,2.2936761,Paris,France,48.8534951,2.3483915
10,1 Bis Rue De Vaugirard 6th arr 75006 Paris France,48.8487675,2.3410376,Paris,France,48.8534951,2.3483915
11,1 Hamilton Place Park Lane Westminster Borough London W1J 7QY United Kingdom,51.5038632,-0.1504132,London,United Kingdom,51.4893335,-0.144055085
12,1 Impasse Marteau 18th arr 75018 Paris France,48.9015941,2.3597783,Paris,France,48.8534951,2.3483915
13,1 Inverness Terrace Westminster Borough London W2 3JP United Kingdom,51.5109945,-0.1863417,London,United Kingdom,51.4893335,-0.144055085
14,1 Kensington Court Kensington and Chelsea London W8 5DL United Kingdom,51.5020425,-0.1866541,London,United Kingdom,51.4893335,-0.144055085
15,1 Kings Cross Road Islington London WC1X 9HX United Kingdom,51.5263854,-0.1136042,London,United Kingdom,51.4893335,-0.144055085
16,1 Place De La Sorbonne 5th arr 75005 Paris France,48.8483053,2.3425596,Paris,France,48.8534951,2.3483915
17,1 Place Vend me 1st arr 75001 Paris France,48.8668564,2.3286339,Paris,France,48.8534951,2.3483915
18,1 Rue De Libourne 12th arr 75012 Paris France,48.8315204,2.3870797,Paris,France,48.8534951,2.3483915
19,1 Rue Du G n ral Blaise 11th arr 75011 Paris France,48.8610265,2.3788974,Paris,France,48.8534951,2.3483915
20,1 rue Geoffroy Marie 9th arr 75009 Paris France,48.8732543,2.343239,Paris,France,48.8534951,2.3483915
21,1 Rue Sainte Opportune 1st arr 75001 Paris France,48.8598229,2.347111,Paris,France,48.8534951,2.3483915
22,1 Rue Scribe 9th arr 75009 Paris France,48.8704175,2.3296832,Paris,France,48.8534951,2.3483915
23,1 Shortlands Hammersmith and Fulham London W6 8DR United Kingdom,51.4919588,-0.2200956,London,United Kingdom,51.4893335,-0.144055085
24,1 Suffolk Place Westminster Borough London SW1Y 4HX United Kingdom,51.5084595,-0.1311382,London,United Kingdom,51.4893335,-0.144055085
25,1 Waterview Drive Greenwich London SE10 0TW United Kingdom,51.5024348,-0.0002497,London,United Kingdom,51.4893335,-0.144055085
26,10 12 rue Cognacq Jay 7th arr 75007 Paris France,48.8619373,2.3040298,Paris,France,48.8534951,2.3483915
27,10 12 rue de Charonne 11th arr 75011 Paris France,48.8524215,2.3743832,Paris,France,48.8534951,2.3483915
28,10 avenue Carnot 17th arr 75017 Paris France,48.8756435,2.2938788,Paris,France,48.8534951,2.3483915
29,10 Avenue D I na 16th arr 75016 Paris France,48.8637135,2.2934759,Paris,France,48.8534951,2.3483915
30,10 Avenue Emile Zola 15th arr 75015 Paris France,48.8460269,2.2788281,Paris,France,48.8534951,2.3483915
31,10 Beaufort Gardens Kensington and Chelsea London SW3 1PT United Kingdom,51.4980052,-0.1643238,London,United Kingdom,51.4893335,-0.144055085
32,10 Berners Street Westminster Borough London W1T 3NP United Kingdom,51.5167472,-0.135965,London,United Kingdom,51.4893335,-0.144055085
33,10 Bina Gardens South Kensington Kensington and Chelsea London SW5 0LA United Kingdom,51.4916378,-0.1832833,London,United Kingdom,51.4893335,-0.144055085
34,10 Bis rue du D barcad re 17th arr 75017 Paris France,48.8780363,2.2864907,Paris,France,48.8534951,2.3483915
35,10 Carlisle Street Westminster Borough London W1D 3BR United Kingdom,51.5147387,-0.1341108,City of Westminster,United Kingdom,51.4973206,-0.137149
36,10 Godliman Street City of London London EC4V 5AJ United Kingdom,51.5127625,-0.0997157,City of London,United Kingdom,51.5156177,-0.0919983
37,10 Harrington Road Kensington and Chelsea London SW7 3ER United Kingdom,51.4943077,-0.1755579,London,United Kingdom,51.4893335,-0.144055085
38,10 Monmouth Street Camden London WC2H 9HB United Kingdom,51.5145986,-0.1270336,London,United Kingdom,51.4893335,-0.144055085
39,10 Palace Place Westminster Borough London SW1E 5BW United Kingdom,51.4990259,-0.1427453,London,United Kingdom,51.4893335,-0.144055085
40,10 Pepys Street City of London London EC3N 2NR United Kingdom,51.5106538,-0.0773676,City of London,United Kingdom,51.5156177,-0.0919983
41,10 Place De La R publique 11th arr 75011 Paris France,48.8673199,2.3656296,Paris,France,48.8534951,2.3483915
42,10 Place De Mexico 16th arr 75016 Paris France,48.8656973,2.2829776,Paris,France,48.8534951,2.3483915
43,10 rue Chateaubriand 8th arr 75008 Paris France,48.8735418,2.302442,Paris,France,48.8534951,2.3483915
44,10 rue d Ormesson 4th arr 75004 Paris France,48.8555319,2.3621212,Paris,France,48.8534951,2.3483915
45,10 rue de Bruxelles 9th arr 75009 Paris France,48.88366,2.3313845,Paris,France,48.8534951,2.3483915
46,10 Rue de la Tour d Auvergne 9th arr 75009 Paris France,48.8789432,2.3448623,Paris,France,48.8534951,2.3483915
47,10 rue de Vaugirard 6th arr 75006 Paris France,48.8491427,2.3397118,Paris,France,48.8534951,2.3483915
48,10 Rue Gabriel Laumain 10th arr 75010 Paris France,48.8734851,2.3485111,Paris,France,48.8534951,2.3483915
49,10 rue Gager Gabillot 15th arr 75015 Paris France,48.8376887,2.3063102,Paris,France,48.8534951,2.3483915
50,10 Rue Kepler 16th arr 75016 Paris France,48.8699103,2.2973386,Paris,France,48.8534951,2.3483915
51,10 rue Lamartine 9th arr 75009 Paris France,48.8766269,2.3432886,Paris,France,48.8534951,2.3483915
52,10 rue Saint Hyacinthe 1st arr 75001 Paris France,48.8661705,2.331561,Paris,France,48.8534951,2.3483915
53,10 rue Saint Philippe du Roule 8th arr 75008 Paris France,48.8729676,2.3081178,Paris,France,48.8534951,2.3483915
54,10 Wardour Street Leicester Square Westminster Borough London W1D 6QF United Kingdom,51.510843,-0.1314287,London,United Kingdom,51.4893335,-0.144055085
55,10 West Temple Sheen London SW14 7RT United Kingdom,51.4611219,-0.2756216,London,United Kingdom,51.4893335,-0.144055085
56,100 110 Euston Road Camden London NW1 2AJ United Kingdom,51.5286766,-0.1283489,London,United Kingdom,51.4893335,-0.144055085
57,100 Cromwell Road Kensington and Chelsea London SW7 4ER United Kingdom,51.495179,-0.183827,London,United Kingdom,51.4893335,-0.144055085
58,100 Queen s Gate Kensington and Chelsea London SW7 5AG United Kingdom,51.4925138,-0.1787917,London,United Kingdom,51.4893335,-0.144055085
59,100 Shoreditch High Street Hackney London E1 6JQ United Kingdom,51.5254162,-0.0772849,London,United Kingdom,51.4893335,-0.144055085
60,100 Vauxhall Walk Lambeth London SE11 5AL United Kingdom,51.4891226,-0.1205639,London,United Kingdom,51.4893335,-0.144055085
61,101 Buckingham Palace Road Westminster Borough London SW1W 0SJ United Kingdom,51.4956657,-0.1452793,London,United Kingdom,51.4893335,-0.144055085
62,101 Knightsbridge Westminster Borough London SW1X 7RN United Kingdom,51.5014191,-0.1625805,London,United Kingdom,51.4893335,-0.144055085
63,102 Avenue de Villiers 17th arr 75017 Paris France,48.8848583,2.2997023,Paris,France,48.8534951,2.3483915
64,102 Avenue Victor Hugo 16th arr 75016 Paris France,48.8688962,2.2827459,Paris,France,48.8534951,2.3483915
65,102 Bd De Grenelle 15th arr 75015 Paris France,48.8494851,2.2955063,Paris,France,48.8534951,2.3483915
66,104 Bayswater Rd Westminster Borough London W2 3HL United Kingdom,51.5108439,-0.1839074,London,United Kingdom,51.4893335,-0.144055085
67,108 Baker Street Westminster Borough London W1U 6LJ United Kingdom,51.5209191,-0.1566567,London,United Kingdom,51.4893335,-0.144055085
68,108 Rue Saint Lazare 8th arr 75008 Paris France,48.8756604,2.3252075,Paris,France,48.8534951,2.3483915
69,109 113 Queen s Gate Kensington and Chelsea London SW7 5LR United Kingdom,51.4925478,-0.1780611,London,United Kingdom,51.4893335,-0.144055085
70,10a Chestnut Plaza Westfield Stratford City Olympic Park Newham London E20 1GL United Kingdom,51.5426054,-0.0072708,London,United Kingdom,51.4893335,-0.144055085
71,10b Chestnut Plaza Westfield Stratford City Olympic Park Newham London E20 1GL United Kingdom,51.5426351,-0.0073272,London,United Kingdom,51.4893335,-0.144055085
72,11 12 Poplar Mews Shepherd s Bush Hammersmith and Fulham London W12 7JS United Kingdom,51.5054544,-0.2262216,London,United Kingdom,51.4893335,-0.144055085
73,11 13 Bayley Street Bedford Square Camden London WC1B 3HD United Kingdom,51.5188555,-0.1319172,London,United Kingdom,51.4893335,-0.144055085
74,11 15 Rue De Lyon 12th arr 75012 Paris France,48.8468064,2.3714789,Paris,France,48.8534951,2.3483915
75,11 Bis Rue Jules Chaplain 6th arr 75006 Paris France,48.8427564,2.3305636,Paris,France,48.8534951,2.3483915
76,11 Bis rue Mazagran 10th arr 75010 Paris France,48.8708508,2.3515882,Paris,France,48.8534951,2.3483915
77,11 Cadogan Gardens Sloane Square Kensington and Chelsea London SW3 2RJ United Kingdom,51.4936161,-0.1592347,London,United Kingdom,51.4893335,-0.144055085
78,11 Knightsbridge Westminster Borough London SW1X 7LY United Kingdom,51.502485,-0.1539265,London,United Kingdom,51.4893335,-0.144055085
79,11 Rue d Astorg 8th arr 75008 Paris France,48.8728324,2.3193886,Paris,France,48.8534951,2.3483915
80,11 Rue de l Arcade 8th arr 75008 Paris France,48.871723,2.3235377,Paris,France,48.8534951,2.3483915
81,11 rue de Tr vise 9th arr 75009 Paris France,48.8732706,2.3450746,Paris,France,48.8534951,2.3483915
82,11 rue du 8 Mai 1945 10th arr 75010 Paris France,48.8761376,2.3572681,Paris,France,48.8534951,2.3483915
83,11 Rue Du Temple 4th arr 75004 Paris France,48.8581186,2.3529369,Paris,France,48.8534951,2.3483915
84,11 rue Paul Baudry 8th arr 75008 Paris France,48.8725794,2.3075779,Paris,France,48.8534951,2.3483915
85,11 Thurloe Place Knightsbridge Kensington and Chelsea London SW7 2RS United Kingdom,51.4959227,-0.1702917,London,United Kingdom,51.4893335,-0.144055085
86,110 rue Blomet 15th arr 75015 Paris France,48.8405612,2.2991035,Paris,France,48.8534951,2.3483915
87,111 avenue de la Bourdonnais 7th arr 75007 Paris France,48.8550466,2.304583,Paris,France,48.8534951,2.3483915
88,111 Cromwell Road Kensington and Chelsea London SW7 4DP United Kingdom,51.4945522,-0.1861213,London,United Kingdom,51.4893335,-0.144055085
89,111 Westminster Bridge Road Lambeth London SE1 7JD United Kingdom,51.4990953,-0.1132136,London,United Kingdom,51.4893335,-0.144055085
90,112 boulevard de S bastopol 3rd arr 75003 Paris France,48.8687425,2.3541761,Paris,France,48.8534951,2.3483915
91,113 Lambeth Rd Lambeth London SE1 7LS United Kingdom,51.4948465,-0.1187481,London,United Kingdom,51.4893335,-0.144055085
92,116 Piccadilly Westminster Borough London W1J 7BJ United Kingdom,51.504716,-0.1475618,London,United Kingdom,51.4893335,-0.144055085
93,117 129 Cromwell Road Kensington and Chelsea London SW7 4DS United Kingdom,51.4945144,-0.1866172,London,United Kingdom,51.4893335,-0.144055085
94,117 Poplar High Street Tower Hamlets London E14 0AE United Kingdom,51.5090985,-0.0157302,London,United Kingdom,51.4893335,-0.144055085
95,117 Rue Lauriston 16th arr 75116 Paris France,48.8663359,2.2867935,Paris,France,48.8534951,2.3483915
96,11bis Rue Godot de Mauroy 9th arr 75009 Paris France,48.870961,2.3267678,Paris,France,48.8534951,2.3483915
97,12 14 Rue Joseph De Maistre 18th arr 75018 Paris France,48.8865626,2.3329648,Paris,France,48.8534951,2.3483915
98,12 Boulevard Haussmann 9th arr 75009 Paris France,48.8724588,2.3378004,Paris,France,48.8534951,2.3483915
99,12 boulevard Malesherbes 8th arr 75008 Paris France,48.8715828,2.3224853,Paris,France,48.8534951,2.3483915
100,12 Folgate Street City of London London E1 6BX United Kingdom,51.5208575,-0.0779503,London,United Kingdom,51.4893335,-0.144055085
101,12 Lancaster Gate Lancaster Gate Westminster Borough London W2 3LG United Kingdom,51.5119933,-0.1782794,London,United Kingdom,51.4893335,-0.144055085
102,12 Osborn Street Aldgate East Tower Hamlets London E1 6TE United Kingdom,51.5166755,-0.0697897,London,United Kingdom,51.4893335,-0.144055085
103,12 rue de la Montagne Sainte Genevi ve 5th arr 75005 Paris France,48.8489839,2.348383,Paris,France,48.8534951,2.3483915
104,12 Rue de Louvois 2nd arr 75002 Paris France,48.8684165,2.336869,Paris,France,48.8534951,2.3483915
105,12 rue de Marignan 8th arr 75008 Paris France,48.8685093,2.3067895,Paris,France,48.8534951,2.3483915
106,12 rue de Parme 9th arr 75009 Paris France,48.881407,2.3274204,Paris,France,48.8534951,2.3483915
107,12 rue des Saussaies 8th arr 75008 Paris France,48.8713699,2.3181191,Paris,France,48.8534951,2.3483915
108,12 Rue Jean Goujon 8th arr 75008 Paris France,48.8665788,2.3084447,Paris,France,48.8534951,2.3483915
109,12 rue Saint Didier 16th arr 75016 Paris France,48.8663444,2.2881979,Paris,France,48.8534951,2.3483915
110,12 rue Saint Roch 1st arr 75001 Paris France,48.8644627,2.3318473,Paris,France,48.8534951,2.3483915
111,12 Upper Woburn Place Camden London WC1H 0HX United Kingdom,51.5266618,-0.1296571,London,United Kingdom,51.4893335,-0.144055085
112,123 boulevard S bastopol 2nd arr 75002 Paris France,48.8675886,2.3531018,Paris,France,48.8534951,2.3483915
113,123 Rue Du Faubourg Saint Honor 8th arr 75008 Paris France,48.8730823,2.309659,Paris,France,48.8534951,2.3483915
114,124 Clerkenwell Rd Camden London EC1R 5DJ United Kingdom,51.5220869,-0.1082443,London,United Kingdom,51.4893335,-0.144055085
115,128 avenue de Wagram 17th arr 75017 Paris France,48.8848292,2.3035189,Paris,France,48.8534951,2.3483915
116,128 King Henry s Road Camden London NW3 3ST United Kingdom,51.5421476,-0.1703073,London,United Kingdom,51.4893335,-0.144055085
117,129 Bayswater Road London W2 4RJ United Kingdom,51.51046,-0.1875844,London,United Kingdom,51.4893335,-0.144055085
118,13 15 Gower Street Camden London WC1E 6HE United Kingdom,51.520378,-0.1303414,London,United Kingdom,51.4893335,-0.144055085
119,13 Boulevard Du Temple 3rd arr 75003 Paris France,48.8639318,2.3658744,Paris,France,48.8534951,2.3483915
120,13 Rue De La Paix 2nd arr 75002 Paris France,48.8693409,2.3310263,Paris,France,48.8534951,2.3483915
121,13 rue des Beaux Arts 6th arr 75006 Paris France,48.8562272,2.3351758,Paris,France,48.8534951,2.3483915
122,13 Rue Fran ois Ory 92120 Paris France,48.8178079,2.3293636,Paris,France,48.8534951,2.3483915
123,13 rue Geoffroy Marie 9th arr 75009 Paris France,48.8738557,2.3444232,Paris,France,48.8534951,2.3483915
124,13 Rue Jules Cesar 12th arr 75012 Paris France,48.8490691,2.3697484,Paris,France,48.8534951,2.3483915
125,13 rue Saint Sulpice 6th arr 75006 Paris France,48.8513515,2.3375084,Paris,France,48.8534951,2.3483915
126,130 134 Southampton Row Camden London WC1B 5AF United Kingdom,51.5210085,-0.1230966,London,United Kingdom,51.4893335,-0.144055085
127,130 135 Minories City of London London EC3N 1NU United Kingdom,51.5122457,-0.0757326,City of London,United Kingdom,51.5156177,-0.0919983
128,130 Tottenham Court Road Camden London W1T 5AY United Kingdom,51.5241386,-0.1380807,London,United Kingdom,51.4893335,-0.144055085
129,132 Boulevard Haussmann 8th arr 75008 Paris France,48.8753446,2.3167161,Paris,France,48.8534951,2.3483915
130,134 George Street Westminster Borough London W1H 5DN United Kingdom,51.5163841,-0.1635764,London,United Kingdom,51.4893335,-0.144055085
131,14 15 Langham Place Westminster Borough London W1B 2QS United Kingdom,51.517839,-0.1424476,City of Westminster,United Kingdom,51.4973206,-0.137149
132,14 16 Craven Hill Lancaster Gate Westminster Borough London W2 3DU United Kingdom,51.5132069,-0.1807816,London,United Kingdom,51.4893335,-0.144055085
133,14 Henrietta Street Westminster Borough London WC2E 8QH United Kingdom,51.5109079,-0.1238221,London,United Kingdom,51.4893335,-0.144055085
134,14 Rue Beaujon 8th arr 75008 Paris France,48.8751845,2.3013214,Paris,France,48.8534951,2.3483915
135,14 Rue de la Sorbonne 5th arr 75005 Paris France,48.8493499,2.3430569,Paris,France,48.8534951,2.3483915
136,14 rue de la Tremoille 8th arr 75008 Paris France,48.8668589,2.3028215,Paris,France,48.8534951,2.3483915
137,14 Rue du Chevalier de Saint George 1st arr 75001 Paris France,48.8686931,2.325211,Paris,France,48.8534951,2.3483915
138,14 Rue St Simon 7th arr 75007 Paris France,48.8560685,2.3236846,Paris,France,48.8534951,2.3483915
139,14 Rue Stanislas 6th arr 75006 Paris France,48.8438352,2.3280708,Paris,France,48.8534951,2.3483915
140,140 Gloucester Road Kensington and Chelsea London SW7 4QH United Kingdom,51.4938733,-0.1824963,London,United Kingdom,51.4893335,-0.144055085
141,140 Park Lane Westminster Borough London W1K 7AA United Kingdom,51.5131428,-0.1576714,London,United Kingdom,51.4893335,-0.144055085
142,141 rue St Honor 1st arr 75001 Paris France,48.861711,2.340674,Paris,France,48.8534951,2.3483915
143,142 Minories City of London London EC3N 1LS United Kingdom,51.5128032,-0.07586,City of London,United Kingdom,51.5156177,-0.0919983
144,142 To 144 Warwick Way Victoria Westminster Borough London SW1V 4JE United Kingdom,51.4903724,-0.1459218,London,United Kingdom,51.4893335,-0.144055085
145,143 Avenue De Malakoff 16th arr 75016 Paris France,48.875551,2.2835191,Paris,France,48.8534951,2.3483915
146,143 Boulevard Saint Germain 6th arr 75006 Paris France,48.8531641,2.3344097,Paris,France,48.8534951,2.3483915
147,144 Praed St Paddington Westminster Borough London W2 1HU United Kingdom,51.5161139,-0.1749521,London,United Kingdom,51.4893335,-0.144055085
148,146 Praed Street Westminster Borough London W2 1EE United Kingdom,51.515632,-0.175737,London,United Kingdom,51.4893335,-0.144055085
149,147 Cromwell Road Kensington and Chelsea London SW5 0TH United Kingdom,51.4944849,-0.1884174,London,United Kingdom,51.4893335,-0.144055085
150,15 16 Prince Of Wales Terrace Kensington and Chelsea London W8 5PQ United Kingdom,51.5012329,-0.1859937,London,United Kingdom,51.4893335,-0.144055085
151,15 17 Charlotte Street Hotel Westminster Borough London W1T 1RJ United Kingdom,51.5184158,-0.1348509,London,United Kingdom,51.4893335,-0.144055085
152,15 Beeston Place Westminster Borough London SW1W 0JW United Kingdom,51.4975621,-0.145551,London,United Kingdom,51.4893335,-0.144055085
153,15 Boulevard Romain Rolland 14th arr 75014 Paris France,48.8196885,2.3263505,Paris,France,48.8534951,2.3483915
154,15 Cromwell Place Kensington and Chelsea London SW7 2LA United Kingdom,51.4943935,-0.1750169,London,United Kingdom,51.4893335,-0.144055085
155,15 Montague St Bloomsbury Camden London WC1B 5BJ United Kingdom,51.520181,-0.1256957,London,United Kingdom,51.4893335,-0.144055085
156,15 Place Vend me 1st arr 75001 Paris France,48.8679466,2.3289593,Paris,France,48.8534951,2.3483915
157,15 Quai Saint Michel 5th arr 75005 Paris France,48.8532269,2.3457159,Paris,France,48.8534951,2.3483915
158,15 Rue Boissy d Anglas 8th arr 75008 Paris France,48.868414,2.3213247,Paris,France,48.8534951,2.3483915
159,15 Rue de Bassano 16th arr 75016 Paris France,48.8690596,2.2971078,Paris,France,48.8534951,2.3483915
160,15 rue de Constantinople 8th arr 75008 Paris France,48.8797331,2.3206003,Paris,France,48.8534951,2.3483915
161,15 Rue De La Grande Chaumi re 6th arr 75006 Paris France,48.8420669,2.3304091,Paris,France,48.8534951,2.3483915
162,15 Rue Des Pyramides 1st arr 75001 Paris France,48.8652582,2.3329632,Paris,France,48.8534951,2.3483915
163,15 Rue Dupleix 15th arr 75015 Paris France,48.8516619,2.2979395,Paris,France,48.8534951,2.3483915
164,15 rue Edouard Manet 13th arr 75013 Paris France,48.8328764,2.3572531,Paris,France,48.8534951,2.3483915
165,15 Rue Jacob 6th arr 75006 Paris France,48.8550236,2.3350786,Paris,France,48.8534951,2.3483915
166,15 Seymour Street Westminster Borough London W1H 7JW United Kingdom,51.5147071,-0.1578291,London,United Kingdom,51.4893335,-0.144055085
167,150 Bayswater Road Kensington and Chelsea London W2 4RT United Kingdom,51.5100362,-0.190657,London,United Kingdom,51.4893335,-0.144055085
168,150 Piccadilly Westminster Borough London W1J 9BR United Kingdom,51.5069446,-0.1415776,London,United Kingdom,51.4893335,-0.144055085
169,151 157 City Road Shoreditch Islington London EC1V 1JS United Kingdom,51.5278465,-0.0889473,London,United Kingdom,51.4893335,-0.144055085
170,151 bis Rue de Rennes 6th arr 75006 Paris France,48.8453774,2.3256427,Paris,France,48.8534951,2.3483915
171,152 Cricklewood Broadway Cricklewood London NW2 3ED United Kingdom,51.5561548,-0.2141824,London,United Kingdom,51.4893335,-0.144055085
172,153 Boulevard Saint Germain 6th arr 75006 Paris France,48.853688,2.3322667,Paris,France,48.8534951,2.3483915
173,153 Hammersmith Road Hammersmith and Fulham London W14 0QL United Kingdom,51.4934752,-0.2153256,London,United Kingdom,51.4893335,-0.144055085
174,153 Rue De Vaugirard 15th arr 75015 Paris France,48.843707,2.3155631,Paris,France,48.8534951,2.3483915
175,16 22 Great Russell Street Camden London WC1B 3NN United Kingdom,51.5171671,-0.1290534,London,United Kingdom,51.4893335,-0.144055085
176,16 Avenue de l Opera 1st arr 75001 Paris France,48.8654874,2.3348924,Paris,France,48.8534951,2.3483915
177,16 avenue de Tourville 7th arr 75007 Paris France,48.8542681,2.3078116,Paris,France,48.8534951,2.3483915
178,16 boulevard Haussmann 9th arr 75009 Paris France,48.8728351,2.3362507,Paris,France,48.8534951,2.3483915
179,16 London Street Paddington Westminster Borough London W2 1HL United Kingdom,51.5150534,-0.1739974,London,United Kingdom,51.4893335,-0.144055085
180,16 rue d Edimbourg 8th arr 75008 Paris France,48.8795369,2.3202966,Paris,France,48.8534951,2.3483915
181,16 rue de Berri 8th arr 75008 Paris France,48.8726335,2.3048084,Paris,France,48.8534951,2.3483915
182,16 rue de S ze 9th arr 75009 Paris France,48.8705741,2.3264194,Paris,France,48.8534951,2.3483915
183,16 Sumner Place Kensington and Chelsea London SW7 3EG United Kingdom,51.4930905,-0.1755022,London,United Kingdom,51.4893335,-0.144055085
184,160 Cromwell Road Kensington Kensington and Chelsea London SW5 0TL United Kingdom,51.4946905,-0.1910197,London,United Kingdom,51.4893335,-0.144055085
185,160 Rue La Fayette 10th arr 75010 Paris France,48.8793427,2.3577745,Paris,France,48.8534951,2.3483915
186,163 Marsh Wall Docklands Tower Hamlets London E14 9SJ United Kingdom,51.5019097,-0.0232208,London,United Kingdom,51.4893335,-0.144055085
187,165 rue de Rome 17th arr 75017 Paris France,48.8870573,2.3143297,Paris,France,48.8534951,2.3483915
188,166 Boulevard Berthier 17th arr 75017 Paris France,48.8864673,2.2948911,Paris,France,48.8534951,2.3483915
189,167 rue de Rome 17th arr 75017 Paris France,48.8871283,2.314205,Paris,France,48.8534951,2.3483915
190,17 18 Upper Woburn Place Camden London WC1H 0HT United Kingdom,51.5265189,-0.1303689,London,United Kingdom,51.4893335,-0.144055085
191,17 19 Egerton Terrace Knightsbridge Kensington and Chelsea London SW3 2BX United Kingdom,51.4968406,-0.1675498,London,United Kingdom,51.4893335,-0.144055085
192,17 25 Sloane Street Knightsbridge Kensington and Chelsea London SW1X 9NU United Kingdom,51.4999683,-0.1599927,London,United Kingdom,51.4893335,-0.144055085
193,17 Avenue Kl ber 16th arr 75016 Paris France,48.8713239,2.2937849,Paris,France,48.8534951,2.3483915
194,17 bis rue Am lie 7th arr 75007 Paris France,48.8585193,2.3077243,Paris,France,48.8534951,2.3483915
195,17 Boulevard Saint Jacques 14th arr 75014 Paris France,48.8315962,2.3399796,Paris,France,48.8534951,2.3483915
196,17 Nottingham Place Westminster Borough London W1U 5LG United Kingdom,51.5215257,-0.1533039,London,United Kingdom,51.4893335,-0.144055085
197,17 Rue de Caumartin 9th arr 75009 Paris France,48.871309,2.3277079,Paris,France,48.8534951,2.3483915
198,17 rue de l Arcade 8th arr 75008 Paris France,48.8720593,2.3236802,Paris,France,48.8534951,2.3483915
199,17 rue de Richelieu 1st arr 75001 Paris France,48.8644382,2.3359148,Paris,France,48.8534951,2.3483915
200,17 Rue Du Cotentin 15th arr 75015 Paris France,48.838484,2.3150904,Paris,France,48.8534951,2.3483915
201,17 rue Duhesme 18th arr 75018 Paris France,48.8908018,2.3380204,Paris,France,48.8534951,2.3483915
202,17 rue g t le coeur 6th arr 75006 Paris France,48.8535089,2.3425787,Paris,France,48.8534951,2.3483915
203,171 Knightsbridge Westminster Borough London SW7 1DW United Kingdom,51.5015721,-0.1628511,London,United Kingdom,51.4893335,-0.144055085
204,173 185 Greenwich High Rd Greenwich London SE10 8JA United Kingdom,51.4778583,-0.0137463,London,United Kingdom,51.4893335,-0.144055085
205,173 Gloucester Place Westminster Borough London NW1 6DX United Kingdom,51.5241452,-0.1609907,London,United Kingdom,51.4893335,-0.144055085
206,177 Boulevard Haussmann 8th arr 75008 Paris France,48.8746128,2.3056956,Paris,France,48.8534951,2.3483915
207,177 rue du faubourg Saint Honor 8th arr 75008 Paris France,48.8750848,2.3048372,Paris,France,48.8534951,2.3483915
208,18 21 Charterhouse Square Islington London EC1M 6AH United Kingdom,51.520943,-0.1004581,London,United Kingdom,51.4893335,-0.144055085
209,18 30 Lexham Gardens Kensington and Chelsea London W8 5JE United Kingdom,51.4954976,-0.1893691,London,United Kingdom,51.4893335,-0.144055085
210,18 Albert Embankment Lambeth London SE1 7TJ United Kingdom,51.4913737,-0.1214194,London,United Kingdom,51.4893335,-0.144055085
211,18 Avenue De Suffren Entr e au 22 rue Jean Rey 15th arr 75015 Paris France,48.8555664,2.2926243,Paris,France,48.8534951,2.3483915
212,18 Lodge Road Near Baker Street And Marylebone Westminster Borough London NW8 7JT United Kingdom,51.529257,-0.168358,London,United Kingdom,51.4893335,-0.144055085
213,18 rue Bachaumont 2nd arr 75002 Paris France,48.8663208,2.3450399,Paris,France,48.8534951,2.3483915
214,18 rue Clement Marrot 8th arr 75008 Paris France,48.8678432,2.3033075,Paris,France,48.8534951,2.3483915
215,18 Rue d Antin 2nd arr 75002 Paris France,48.8691686,2.3337818,Paris,France,48.8534951,2.3483915
216,18 rue de Constantinople 8th arr 75008 Paris France,48.8803752,2.319591,Paris,France,48.8534951,2.3483915
217,18 Rue du Cirque 8th arr 75008 Paris France,48.8709627,2.3154141,Paris,France,48.8534951,2.3483915
218,181 Cromwell Road Kensington and Chelsea London SW5 0SF United Kingdom,51.4948059,-0.1926525,London,United Kingdom,51.4893335,-0.144055085
219,181 Tooley Street Southwark London SE1 2JR United Kingdom,51.5032524,-0.078179,London,United Kingdom,51.4893335,-0.144055085
220,185 Boulevard Brune 14th arr 75014 Paris France,48.8237487,2.324056,Paris,France,48.8534951,2.3483915
221,19 21 Gt Marlborough St Westminster Borough London W1F 7HL United Kingdom,51.5143624,-0.1394483,City of Westminster,United Kingdom,51.4973206,-0.137149
222,19 21 Penywern Road Kensington and Chelsea London SW5 9TT United Kingdom,51.4907493,-0.1934627,London,United Kingdom,51.4893335,-0.144055085
223,19 25 Granville Place Marble Arch Westminster Borough London W1H 6PA United Kingdom,51.5144381,-0.1558337,London,United Kingdom,51.4893335,-0.144055085
224,19 avenue Kleber 16th arr 75116 Paris France,48.8710605,2.2933537,Paris,France,48.8534951,2.3483915
225,19 Boulevard De La Tour Maubourg 7th arr 75007 Paris France,48.8605125,2.3106533,Paris,France,48.8534951,2.3483915
226,19 Brent Street Brent Cross London NW4 2EU United Kingdom,51.583236,-0.216868,London,United Kingdom,51.4893335,-0.144055085
227,19 New Bridge Street City of London London EC4V 6DB United Kingdom,51.5122429,-0.1045036,City of London,United Kingdom,51.5156177,-0.0919983
228,19 place du Panth on 5th arr 75005 Paris France,48.845743,2.34493,Paris,France,48.8534951,2.3483915
229,19 Rue Copernic 16th arr 75016 Paris France,48.8690198,2.2891278,Paris,France,48.8534951,2.3483915
230,19 Rue Cujas 5th arr 75005 Paris France,48.8478399,2.342254,Paris,France,48.8534951,2.3483915
231,19 Rue De Caumartin 9th arr 75009 Paris France,48.8713421,2.3280723,Paris,France,48.8534951,2.3483915
232,19 Rue Des Pretres Saint Germain L Auxerrois 1st arr 75001 Paris France,48.8592264,2.340996,Paris,France,48.8534951,2.3483915
233,19 Rue du Commandant Ren Mouchotte 14th arr 75014 Paris France,48.8382943,2.3210421,Paris,France,48.8534951,2.3483915
234,19 Rue Du Pont Neuf 1st arr 75001 Paris France,48.8603483,2.3440535,Paris,France,48.8534951,2.3483915
235,19 Rue Tronchet 8th arr 75008 Paris France,48.8722588,2.3257608,Paris,France,48.8534951,2.3483915
236,19 Rue Vernet 8th arr 75008 Paris France,48.8717649,2.2983855,Paris,France,48.8534951,2.3483915
237,190 Queen s Gate Kensington and Chelsea London SW7 5EX United Kingdom,51.5001979,-0.1795357,London,United Kingdom,51.4893335,-0.144055085
238,199 206 High Holborn Camden London WC1V 7BD United Kingdom,51.5172398,-0.1220324,London,United Kingdom,51.4893335,-0.144055085
239,1a Lexham Gardens Kensington and Chelsea London W8 5JJ United Kingdom,51.4950098,-0.1906195,London,United Kingdom,51.4893335,-0.144055085
240,2 24 Kensington High St Kensington and Chelsea London W8 4PT United Kingdom,51.5027022,-0.1882164,London,United Kingdom,51.4893335,-0.144055085
241,2 4 Boundary Street Hackney London E2 7DD United Kingdom,51.5244224,-0.0764614,London,United Kingdom,51.4893335,-0.144055085
242,2 4bis Cit Rougemont 9th arr 75009 Paris France,48.8721062,2.3451384,Paris,France,48.8534951,2.3483915
243,2 5 Montague Street Bloomsbury Camden London WC1B 5BU United Kingdom,51.5203469,-0.1260893,London,United Kingdom,51.4893335,-0.144055085
244,2 8 Great Suffolk Street Southwark London SE1 0UG United Kingdom,51.5056956,-0.101525,London,United Kingdom,51.4893335,-0.144055085
245,2 8 Hanger Lane Ealing Common London W5 3HN United Kingdom,51.511521,-0.290706,London,United Kingdom,51.4893335,-0.144055085
246,2 avenue la Porte Molitor 16th arr 75016 Paris France,48.8448902,2.252833,Paris,France,48.8534951,2.3483915
247,2 Bd Garibaldi 15th arr 75015 Paris France,48.8475112,2.3022198,Paris,France,48.8534951,2.3483915
248,2 Bridge Place Victoria Westminster Borough London SW1V 1QA United Kingdom,51.49398,-0.143372,London,United Kingdom,51.4893335,-0.144055085
249,2 Caxton Street Westminster Borough London SW1H 0QW United Kingdom,51.498905,-0.1339093,London,United Kingdom,51.4893335,-0.144055085
250,2 Montagu Place Westminster Borough London W1H 2ER United Kingdom,51.5191009,-0.1592,London,United Kingdom,51.4893335,-0.144055085
251,2 place des Pyramides 1st arr 75001 Paris France,48.8637503,2.3320406,Paris,France,48.8534951,2.3483915
252,2 place Louis Armand 12th arr 75012 Paris France,48.8442949,2.3730938,Paris,France,48.8534951,2.3483915
253,2 Rue Boulard 14th arr 75014 Paris France,48.8349272,2.3295913,Paris,France,48.8534951,2.3483915
254,2 Rue d Artois 8th arr 75008 Paris France,48.8722884,2.3090359,Paris,France,48.8534951,2.3483915
255,2 rue de Gramont 2nd arr 75002 Paris France,48.8690126,2.3368708,Paris,France,48.8534951,2.3483915
256,2 Rue De Parme 9th arr 75009 Paris France,48.8814056,2.3282568,Paris,France,48.8534951,2.3483915
257,2 rue des Guillemites 4th arr 75004 Paris France,48.857898,2.3571978,Paris,France,48.8534951,2.3483915
258,2 Rue du Colonel Pierre Avia 15th arr 75015 Paris France,48.8327729,2.2787597,Paris,France,48.8534951,2.3483915
259,2 Rue Duperr 9th arr 75009 Paris France,48.8821595,2.3367444,Paris,France,48.8534951,2.3483915
260,2 Rue Edouard VII 9th arr 75009 Paris France,48.8704371,2.329236,Paris,France,48.8534951,2.3483915
261,2 rue Geoffroy Marie 9th arr 75009 Paris France,48.8732231,2.3436097,Paris,France,48.8534951,2.3483915
262,2 Rue Hector Malot 12th arr 75012 Paris France,48.8453785,2.3753036,Paris,France,48.8534951,2.3483915
263,2 Rue Racine 6th arr 75006 Paris France,48.8503901,2.3422527,Paris,France,48.8534951,2.3483915
264,2 Rue Saint Sulpice 6th arr 75006 Paris France,48.8516148,2.3381293,Paris,France,48.8534951,2.3483915
265,2 Rue Scribe 9th arr 75009 Paris France,48.8708391,2.3303651,Paris,France,48.8534951,2.3483915
266,2 Spring Gardens Trafalgar Square Westminster Borough London SW1A 2TS United Kingdom,51.507374,-0.129135,London,United Kingdom,51.4893335,-0.144055085
267,2 Stanhope Row Park Lane Westminster Borough London W1J 7BS United Kingdom,51.5059334,-0.1489418,London,United Kingdom,51.4893335,-0.144055085
268,2 Sylvester Path Hackney London E8 1EN United Kingdom,51.5458476,-0.0554113,London,United Kingdom,51.4893335,-0.144055085
269,2 The Avenue Ealing London W13 8PH United Kingdom,51.5141842,-0.3192925,London,United Kingdom,51.4893335,-0.144055085
270,2 Wallenberg Place Westminster Borough London W1H 7TN United Kingdom,51.5150522,-0.159239,London,United Kingdom,51.4893335,-0.144055085
271,2 Warrington Crescent Westminster Borough London W9 1ER United Kingdom,51.5243286,-0.1846623,London,United Kingdom,51.4893335,-0.144055085
272,2 Whitehall Court Westminster Borough London SW1A 2EJ United Kingdom,51.5054185,-0.1241499,London,United Kingdom,51.4893335,-0.144055085
273,20 28 Bolsover Street Westminster Borough London W1W 5NB United Kingdom,51.521759,-0.1425381,London,United Kingdom,51.4893335,-0.144055085
274,20 bis rue de la Ga t 14th arr 75014 Paris France,48.8397623,2.3235324,Paris,France,48.8534951,2.3483915
275,20 Chesham Place Kensington and Chelsea London SW1X 8HQ United Kingdom,51.4973203,-0.1562558,London,United Kingdom,51.4893335,-0.144055085
276,20 Lavington Street Southwark London SE1 0NZ United Kingdom,51.5051507,-0.1004724,London,United Kingdom,51.4893335,-0.144055085
277,20 Mercer Street Covent Garden Camden London WC2H 9HD United Kingdom,51.5139275,-0.1271506,London,United Kingdom,51.4893335,-0.144055085
278,20 Nevern Square Kensington and Chelsea London SW5 9PD United Kingdom,51.4915712,-0.1963192,London,United Kingdom,51.4893335,-0.144055085
279,20 Pembridge Gardens Kensington and Chelsea London W2 4DU United Kingdom,51.5101401,-0.1968951,London,United Kingdom,51.4893335,-0.144055085
280,20 rue Berthollet 5th arr 75005 Paris France,48.8389823,2.3455528,Paris,France,48.8534951,2.3483915
281,20 rue de l Ing nieur Robert Keller 15th arr 75015 Paris France,48.8473459,2.2832408,Paris,France,48.8534951,2.3483915
282,20 Rue De La Ga t 14th arr 75014 Paris France,48.831928,2.33514,Paris,France,48.8534951,2.3483915
283,20 rue du Sommerard 5th arr 75005 Paris France,48.8503074,2.3450612,Paris,France,48.8534951,2.3483915
284,20 Rue Jean Rey 15th arr 75015 Paris France,48.8548641,2.2923181,Paris,France,48.8534951,2.3483915
285,20 Rue La Fayette 9th arr 75009 Paris France,48.8735736,2.335965,Paris,France,48.8534951,2.3483915
286,20 Upper Ground Southwark London SE1 9PD United Kingdom,51.5084036,-0.1067988,London,United Kingdom,51.4893335,-0.144055085
287,20 Warwick Street Westminster Borough London W1B 5NF United Kingdom,51.5116049,-0.1383145,City of Westminster,United Kingdom,51.4973206,-0.137149
288,202 220 Cromwell Road Kensington and Chelsea London SW5 0SW United Kingdom,51.4948507,-0.1945544,London,United Kingdom,51.4893335,-0.144055085
289,202 rue de Rivoli 1st arr 75001 Paris France,48.8642689,2.3308179,Paris,France,48.8534951,2.3483915
290,207 Boulevard Raspail 14th arr 75014 Paris France,48.8412131,2.3302954,Paris,France,48.8534951,2.3483915
291,209 211 rue de Charenton 12th arr 75012 Paris France,48.8393229,2.3892274,Paris,France,48.8534951,2.3483915
292,21 Avenue De La Grande Arm e 16th arr 75016 Paris France,48.8747153,2.2906388,Paris,France,48.8534951,2.3483915
293,21 Avonmore Road Kensington Hammersmith and Fulham London W14 8RP United Kingdom,51.4944875,-0.2070605,London,United Kingdom,51.4893335,-0.144055085
294,21 Boulevard De Clichy 9th arr 75009 Paris France,48.8823398,2.3364764,Paris,France,48.8534951,2.3483915
295,21 Gower Street Camden London WC1E 6HG United Kingdom,51.5205441,-0.1308091,London,United Kingdom,51.4893335,-0.144055085
296,21 Piccadilly Westminster Borough London W1J 0BH United Kingdom,51.5094835,-0.1362538,London,United Kingdom,51.4893335,-0.144055085
297,21 rue de Dunkerque 10th arr 75010 Paris France,48.8794843,2.3556545,Paris,France,48.8534951,2.3483915
298,21 rue F licien David 16th arr 75016 Paris France,48.8493082,2.2743626,Paris,France,48.8534951,2.3483915
299,21 rue Lavoisier 8th arr 75008 Paris France,48.8737702,2.3201063,Paris,France,48.8534951,2.3483915
300,21 rue Moli re 1st arr 75001 Paris France,48.8655293,2.3360102,Paris,France,48.8534951,2.3483915
301,213 rue de la Croix Nivert 15th arr 75015 Paris France,48.8363819,2.2897793,Paris,France,48.8534951,2.3483915
302,214 High Street Acton London London W3 9NX United Kingdom,51.5079153,-0.2730145,London,United Kingdom,51.4893335,-0.144055085
303,214 rue du Faubourg Saint Honor 8th arr 75008 Paris France,48.8756508,2.3041568,Paris,France,48.8534951,2.3483915
304,214 rue Saint Jacques 5th arr 75005 Paris France,48.8452789,2.342295,Paris,France,48.8534951,2.3483915
305,216 Avenue Jean Jaures 19th arr 75019 Paris France,48.8886969,2.3945403,Paris,France,48.8534951,2.3483915
306,218 220 rue du Faubourg St Honor 8th arr 75008 Paris France,48.8757155,2.3038781,Paris,France,48.8534951,2.3483915
307,218 rue de Rivoli 1st arr 75001 Paris France,48.8649306,2.3290844,Paris,France,48.8534951,2.3483915
308,22 24 Rue Faidherbe 11th arr 75011 Paris France,48.8519215,2.3839993,Paris,France,48.8534951,2.3483915
309,22 25 Finsbury Square City Islington London EC2A 1DX United Kingdom,51.5218066,-0.0856081,London,United Kingdom,51.4893335,-0.144055085
310,22 28 Broadway Westminster Borough London SW1H 0BH United Kingdom,51.4993927,-0.1329128,London,United Kingdom,51.4893335,-0.144055085
311,22 avenue de Villiers 17th arr 75017 Paris France,48.8823111,2.3132374,Paris,France,48.8534951,2.3483915
312,22 Avenue du professeur lemierre 20th arr 75020 Paris France,48.8554268,2.4152555,Paris,France,48.8534951,2.3483915
313,22 Hertsmere Road Tower Hamlets London E14 4ED United Kingdom,51.5072713,-0.0211213,London,United Kingdom,51.4893335,-0.144055085
314,22 Park Lane Westminster Borough London W1K 1BE United Kingdom,51.5055513,-0.1501698,London,United Kingdom,51.4893335,-0.144055085
315,22 Portman Square Westminster Borough London W1H 7BG United Kingdom,51.5161911,-0.1579487,London,United Kingdom,51.4893335,-0.144055085
316,22 rue d Antin 2nd arr 75002 Paris France,48.8692566,2.3339369,Paris,France,48.8534951,2.3483915
317,22 Rue Danielle Casanova 1st arr 75002 Paris France,48.8681455,2.3313064,Paris,France,48.8534951,2.3483915
318,22 rue de Buci 6th arr 75006 Paris France,48.8538752,2.3366123,Paris,France,48.8534951,2.3483915
319,22 Rue de La Parcheminerie 5th arr 75005 Paris France,48.8518584,2.3447798,Paris,France,48.8534951,2.3483915
320,22 Rue Tronchet 8th arr 75008 Paris France,48.8721692,2.3262681,Paris,France,48.8534951,2.3483915
321,22 Stanley Gardens Kensington and Chelsea London W11 2NG United Kingdom,51.512257,-0.2034244,London,United Kingdom,51.4893335,-0.144055085
322,221 Rue Saint Honore 1st arr 75001 Paris France,48.8658792,2.3298903,Paris,France,48.8534951,2.3483915
323,222 Marylebone Road Westminster Borough London NW1 6JQ United Kingdom,51.519016,-0.166267,London,United Kingdom,51.4893335,-0.144055085
324,225 Edgware Road Westminster Borough London W2 1JU United Kingdom,51.5195688,-0.170521,London,United Kingdom,51.4893335,-0.144055085
325,225 High Street Kensington Kensington and Chelsea London W8 6SA United Kingdom,51.4992791,-0.1973593,London,United Kingdom,51.4893335,-0.144055085
326,225 Ladbroke Grove Kensington and Chelsea London W10 6HQ United Kingdom,51.5199224,-0.2116636,London,United Kingdom,51.4893335,-0.144055085
327,228 Rue De Rivoli 1st arr 75001 Paris France,48.8653685,2.328218,Paris,France,48.8534951,2.3483915
328,23 25 rue de Pont Neuf 1st arr 75001 Paris France,48.8606187,2.344401,Paris,France,48.8534951,2.3483915
329,23 Leinster Gardens Westminster Borough London W2 3AN United Kingdom,51.5124655,-0.182274,London,United Kingdom,51.4893335,-0.144055085
330,23 Mecklenburgh Square Camden London WC1N 2AD United Kingdom,51.525535,-0.1180354,London,United Kingdom,51.4893335,-0.144055085
331,23 Rue Damr mont 18th arr 75018 Paris France,48.887711,2.34154,Paris,France,48.8534951,2.3483915
332,23 rue du Faubourg Montmartre 9th arr 75009 Paris France,48.8731996,2.3425446,Paris,France,48.8534951,2.3483915
333,23 Rue Vignon 8th arr 75008 Paris France,48.8717146,2.3261812,Paris,France,48.8534951,2.3483915
334,230 A Mile End Road Tower Hamlets London E1 4LJ United Kingdom,51.5215508,-0.0469238,London,United Kingdom,51.4893335,-0.144055085
335,232 Boulevard Raspail 14th arr 75014 Paris France,48.8396623,2.3300582,Paris,France,48.8534951,2.3483915
336,234 Diputacio Eixample 08007 Barcelona Spain,41.3882234,2.1644551,Barcelona,España,41.3828939,2.1774322
337,239 Vauxhall Bridge Road Westminster Borough London SW1V 1EQ United Kingdom,51.4942539,-0.1414756,London,United Kingdom,51.4893335,-0.144055085
338,24 27 Bedford Place Bloomsbury Camden London WC1B 5JH United Kingdom,51.5203266,-0.1245891,London,United Kingdom,51.4893335,-0.144055085
339,24 Egerton Gardens Kensington and Chelsea London SW3 2DB United Kingdom,51.4960283,-0.1686355,London,United Kingdom,51.4893335,-0.144055085
340,24 Ludgate Hill City of London London EC4M 7DR United Kingdom,51.5139298,-0.101126,City of London,United Kingdom,51.5156177,-0.0919983
341,24 rue Bassano 16th arr 75016 Paris France,48.8689307,2.2974503,Paris,France,48.8534951,2.3483915
342,24 rue Cadet 9th arr 75009 Paris France,48.8754371,2.3434586,Paris,France,48.8534951,2.3483915
343,24 Rue d Amsterdam 9th arr 75009 Paris France,48.8768854,2.3270623,Paris,France,48.8534951,2.3483915
344,24 Rue De Miromesnil 8th arr 75008 Paris France,48.8730437,2.3161144,Paris,France,48.8534951,2.3483915
345,24 rue de Ponthieu 8th arr 75008 Paris France,48.87096,2.3091617,Paris,France,48.8534951,2.3483915
346,25 avenue du General Leclerc 14th arr 75014 Paris France,48.8309896,2.3297301,Paris,France,48.8534951,2.3483915
347,25 Avenue Montaigne 8th arr 75008 Paris France,48.8661932,2.3042141,Paris,France,48.8534951,2.3483915
348,25 Boulevard Auguste Blanqui 13th arr 75013 Paris France,48.830196,2.3529539,Paris,France,48.8534951,2.3483915
349,25 Courtfield Gardens Kensington and Chelsea London SW5 0PG United Kingdom,51.4931086,-0.190208,London,United Kingdom,51.4893335,-0.144055085
350,25 rue des Saints P res 6th arr 75006 Paris France,48.8565778,2.3319767,Paris,France,48.8534951,2.3483915
351,25 Rue Theodore de Banville 17th arr 75017 Paris France,48.8827492,2.2982782,Paris,France,48.8534951,2.3483915
352,25 Rue Vernet 8th arr 75008 Paris France,48.871859,2.2978177,Paris,France,48.8534951,2.3483915
353,251 rue Saint Honor 1st arr 75001 Paris France,48.8671889,2.326927,Paris,France,48.8534951,2.3483915
354,252 High Holborn Holborn Camden London WC1V 7EN United Kingdom,51.5173303,-0.1180966,London,United Kingdom,51.4893335,-0.144055085
355,257 Rue De Vaugirard 15th arr 75015 Paris France,48.8399018,2.3031011,Paris,France,48.8534951,2.3483915
356,26 28 Trebovir Rd Kensington and Chelsea London SW5 9NJ United Kingdom,51.4916677,-0.1947475,London,United Kingdom,51.4893335,-0.144055085
357,26 33 Queens Gardens Westminster Borough London W2 3BE United Kingdom,51.5134603,-0.1833081,London,United Kingdom,51.4893335,-0.144055085
358,26 42 Bond Street Ealing London W5 5AA United Kingdom,51.5117907,-0.306071,London,United Kingdom,51.4893335,-0.144055085
359,26 Cadogan Gardens Kensington and Chelsea London SW3 2RP United Kingdom,51.4930097,-0.159715,London,United Kingdom,51.4893335,-0.144055085
360,265 Rotherhithe Street Southwark London SE16 5HW United Kingdom,51.5043483,-0.0334436,London,United Kingdom,51.4893335,-0.144055085
361,27 33 Harrington Gardens Kensington and Chelsea London SW7 4JX United Kingdom,51.4928147,-0.1841753,London,United Kingdom,51.4893335,-0.144055085
362,27 avenue des Ternes 17th arr 75017 Paris France,48.8782679,2.294852,Paris,France,48.8534951,2.3483915
363,27 Devonshire Terrace Westminster Borough London W2 3DP United Kingdom,51.5135555,-0.180002,London,United Kingdom,51.4893335,-0.144055085
364,277 Carrer de Proven a Eixample 08037 Barcelona Spain,41.3961448,2.1631674,Barcelona,España,41.3828939,2.1774322
365,28 30 Seymour Street Westminster Borough London W1H 7JB United Kingdom,51.514839,-0.1586656,London,United Kingdom,51.4893335,-0.144055085
366,28 av Corentin Cariou 19th arr 75019 Paris France,48.8969854,2.3852745,Paris,France,48.8534951,2.3483915
367,28 Basil Street Kensington and Chelsea London SW3 1AS United Kingdom,51.4998574,-0.161717,London,United Kingdom,51.4893335,-0.144055085
368,28 Ebury Street Westminster Borough London SW1W 0LU United Kingdom,51.4957436,-0.1477528,London,United Kingdom,51.4893335,-0.144055085
369,28 place des Vosges 3rd arr 75003 Paris France,48.8562725,2.3660412,Paris,France,48.8534951,2.3483915
370,28 Rue de l Arc de Triomphe 17th arr 75017 Paris France,48.8775326,2.293458,Paris,France,48.8534951,2.3483915
371,28 rue Saint Roch 1st arr 75001 Paris France,48.8661991,2.3328826,Paris,France,48.8534951,2.3483915
372,284 To 302 Waterloo Road Southwark London SE1 8RQ United Kingdom,51.4988817,-0.1062888,London,United Kingdom,51.4893335,-0.144055085
373,29 31 Draycott Place Kensington and Chelsea London SW3 2SH United Kingdom,51.4917798,-0.1616049,London,United Kingdom,51.4893335,-0.144055085
374,29 31 Gower Street Camden London WC1E 6HG United Kingdom,51.5207945,-0.1310845,London,United Kingdom,51.4893335,-0.144055085
375,29 31 rue de Poitou 3rd arr 75003 Paris France,48.8615843,2.3620652,Paris,France,48.8534951,2.3483915
376,29 31 rue des Ecoles 5th arr 75005 Paris France,48.8485387,2.3479852,Paris,France,48.8534951,2.3483915
377,29 Avenue De Tourville 7th arr 75007 Paris France,48.853865,2.3072019,Paris,France,48.8534951,2.3483915
378,29 rue Caumartin 9th arr 75009 Paris France,48.8718321,2.3278866,Paris,France,48.8534951,2.3483915
379,29 Rue Jacob 6th arr 75006 Paris France,48.8553486,2.3340736,Paris,France,48.8534951,2.3483915
380,29 rue Victor Mass 9th arr 75009 Paris France,48.880856,2.3375085,Paris,France,48.8534951,2.3483915
381,291 Greenwich High Road Greenwich Greenwich London SE10 8NA United Kingdom,51.4801631,-0.0097201,London,United Kingdom,51.4893335,-0.144055085
382,2e Hugo de Grootstraat 2 6 Westerpark 1052 LC Amsterdam Netherlands,52.3743712,4.8746196,Amsterdam,Nederland,52.3730796,4.8924534
383,3 5 rue du Mont Thabor 1st arr 75001 Paris France,48.8654726,2.3292934,Paris,France,48.8534951,2.3483915
384,3 avenue Mac Mahon 17th arr 75017 Paris France,48.8753837,2.2944651,Paris,France,48.8534951,2.3483915
385,3 Berkeley Street Westminster Borough London W1J 8NE United Kingdom,51.507746,-0.1422993,London,United Kingdom,51.4893335,-0.144055085
386,3 Bis Place Saint Sulpice 6th arr 75006 Paris France,48.8503493,2.3344305,Paris,France,48.8534951,2.3483915
387,3 Boulevard Montmartre 2nd arr 75002 Paris France,48.8713619,2.3426375,Paris,France,48.8534951,2.3483915
388,3 Boulevard Saint Michel 5th arr 75005 Paris France,48.8528364,2.3440803,Paris,France,48.8534951,2.3483915
389,3 Devonshire Terrace Westminster Borough London W2 3DN United Kingdom,51.5138357,-0.1797976,London,United Kingdom,51.4893335,-0.144055085
390,3 Kingdom Street Sheldon Square Westminster Borough London W2 6BD United Kingdom,51.519032,-0.1825943,London,United Kingdom,51.4893335,-0.144055085
391,3 Place du G n ral Koenig 17th arr 75017 Paris France,48.8802782,2.2843852,Paris,France,48.8534951,2.3483915
392,3 Rue Abb De L Ep e 5th arr 75005 Paris France,48.8430523,2.3422519,Paris,France,48.8534951,2.3483915
393,3 Rue Cambon 1st arr 75001 Paris France,48.866435,2.3251076,Paris,France,48.8534951,2.3483915
394,3 Rue Caulaincourt 18th arr 75018 Paris France,48.8852794,2.3301021,Paris,France,48.8534951,2.3483915
395,3 Rue Christine 6th arr 75006 Paris France,48.8542454,2.339956,Paris,France,48.8534951,2.3483915
396,3 rue Clauzel 9th arr 75009 Paris France,48.878932,2.3394182,Paris,France,48.8534951,2.3483915
397,3 Rue De Boulainvilliers 16th arr 75016 Paris France,48.851589,2.2777274,Paris,France,48.8534951,2.3483915
398,3 rue de Bourgogne 7th arr 75007 Paris France,48.8601927,2.318423,Paris,France,48.8534951,2.3483915
399,3 rue de Castiglione 1st arr 75001 Paris France,48.8657394,2.3274415,Paris,France,48.8534951,2.3483915
400,3 Rue de Montalembert 7th arr 75007 Paris France,48.8567042,2.3277805,Paris,France,48.8534951,2.3483915
401,3 rue de Ponthieu 8th arr 75008 Paris France,48.8700325,2.3112736,Paris,France,48.8534951,2.3483915
402,3 rue du Pr aux Clercs 7th arr 75007 Paris France,48.8565421,2.3303504,Paris,France,48.8534951,2.3483915
403,3 rue Lepic 18th arr 75018 Paris France,48.884165,2.3328261,Paris,France,48.8534951,2.3483915
404,3 Rue Pergolese 16th arr 75116 Paris France,48.8756618,2.2863468,Paris,France,48.8534951,2.3483915
405,3 Rue Rouget De Lisle 1st arr 75001 Paris France,48.8661363,2.3260648,Paris,France,48.8534951,2.3483915
406,3 Rue Verniquet 17th arr 75017 Paris France,48.8869128,2.3004034,Paris,France,48.8534951,2.3483915
407,3 South Place City of London London EC2M 2AF United Kingdom,51.5189182,-0.0866009,London,United Kingdom,51.4893335,-0.144055085
408,3 Westbourne Terrace Lancaster Gate Westminster Borough London W2 3UL United Kingdom,51.5142054,-0.1766098,London,United Kingdom,51.4893335,-0.144055085
409,30 32 Boulevard Poissonni re 9th arr 75009 Paris France,48.8715469,2.3439622,Paris,France,48.8534951,2.3483915
410,30 Barkston Gardens Kensington and Chelsea London SW5 0EN United Kingdom,51.4922348,-0.1914229,London,United Kingdom,51.4893335,-0.144055085
411,30 Jamestown Road Camden London NW1 7BY United Kingdom,51.5404555,-0.1460833,London,United Kingdom,51.4893335,-0.144055085
412,30 John Islip St Westminster Borough London SW1P 4DD United Kingdom,51.4932356,-0.1269082,London,United Kingdom,51.4893335,-0.144055085
413,30 Leinster Gardens Bayswater Westminster Borough London W2 3AN United Kingdom,51.5129736,-0.1837431,London,United Kingdom,51.4893335,-0.144055085
414,30 Portman Square Westminster Borough London W1H 7BH United Kingdom,51.5156471,-0.1572443,London,United Kingdom,51.4893335,-0.144055085
415,30 Rathbone Street West End Westminster Borough London W1T 1LB United Kingdom,51.5186801,-0.1354055,London,United Kingdom,51.4893335,-0.144055085
416,30 Rue de Bassano 16th arr 75016 Paris France,48.8691984,2.2979052,Paris,France,48.8534951,2.3483915
417,30 Rue Duret 16th arr 75016 Paris France,48.8752553,2.286653,Paris,France,48.8534951,2.3483915
418,30 Rue Jean Mermoz 8th arr 75008 Paris France,48.8715079,2.3122259,Paris,France,48.8534951,2.3483915
419,30 Rue La P rouse 16th arr 75016 Paris France,48.8703672,2.2938868,Paris,France,48.8534951,2.3483915
420,30 rue Pernety 14th arr 75014 Paris France,48.8335233,2.3191194,Paris,France,48.8534951,2.3483915
421,31 33 Argyle Street Camden London WC1H 8EP United Kingdom,51.5289499,-0.1232979,London,United Kingdom,51.4893335,-0.144055085
422,31 34 Queen s Gate Kensington and Chelsea London SW7 5JA United Kingdom,51.4981225,-0.1799693,London,United Kingdom,51.4893335,-0.144055085
423,31 35 Langham Street Westminster Borough London W1W 6BU United Kingdom,51.5189077,-0.1421957,City of Westminster,United Kingdom,51.4973206,-0.137149
424,31 36 Leicester Square Westminster Borough London WC2H 7LH United Kingdom,51.509963,-0.129797,London,United Kingdom,51.4893335,-0.144055085
425,31 Avenue George V 8th arr 75008 Paris France,48.8687512,2.3001692,Paris,France,48.8534951,2.3483915
426,31 Great Cumberland Place Westminster Borough London W1H 7TA United Kingdom,51.5151247,-0.1600656,London,United Kingdom,51.4893335,-0.144055085
427,31 rue de la Folie M ricourt 11th arr 75011 Paris France,48.8629329,2.3723823,Paris,France,48.8534951,2.3483915
428,31 Rue de Surene 8th arr 75008 Paris France,48.8712877,2.3191903,Paris,France,48.8534951,2.3483915
429,31 St Thomas Street Southwark London SE1 9QU United Kingdom,51.5044972,-0.0855562,London,United Kingdom,51.4893335,-0.144055085
430,32 rue des Ecoles 5th arr 75005 Paris France,48.849147,2.3471935,Paris,France,48.8534951,2.3483915
431,32 rue des Saints P res 7th arr 75007 Paris France,48.855263,2.3305901,Paris,France,48.8534951,2.3483915
432,32 Rue Greuze 16th arr 75016 Paris France,48.8645647,2.2821827,Paris,France,48.8534951,2.3483915
433,33 37 Hogarth Road Kensington and Chelsea London SW5 0QQ United Kingdom,51.4938468,-0.1917582,London,United Kingdom,51.4893335,-0.144055085
434,33 Albemarle Street Mayfair Westminster Borough London W1S 4BP United Kingdom,51.5090558,-0.1421661,London,United Kingdom,51.4893335,-0.144055085
435,33 avenue de Friedland 8th arr 75008 Paris France,48.8740463,2.300196,Paris,France,48.8534951,2.3483915
436,33 Avenue Du Docteur Arnold Netter 12th arr 75012 Paris France,48.8430891,2.4049867,Paris,France,48.8534951,2.3483915
437,33 avenue George V 8th arr 75008 Paris France,48.869143,2.3006526,Paris,France,48.8534951,2.3483915
438,33 Beaufort Gardens Kensington and Chelsea London SW3 1PP United Kingdom,51.4978466,-0.164156,London,United Kingdom,51.4893335,-0.144055085
439,33 Boulevard du Montparnasse 6th arr 75006 Paris France,48.8450894,2.3209503,Paris,France,48.8534951,2.3483915
440,33 place de la Madeleine 8th arr 75008 Paris France,48.8710402,2.3248014,Paris,France,48.8534951,2.3483915
441,33 Roland Gardens Kensington and Chelsea London SW7 3PF United Kingdom,51.4892447,-0.1803196,London,United Kingdom,51.4893335,-0.144055085
442,33 Rue Cambon 1st arr 75001 Paris France,48.8682978,2.3268027,Paris,France,48.8534951,2.3483915
443,33 Rue Dauphine 6th arr 75006 Paris France,48.8547329,2.3395277,Paris,France,48.8534951,2.3483915
444,33 rue Marbeuf 8th arr 75008 Paris France,48.8694755,2.3046954,Paris,France,48.8534951,2.3483915
445,33 rue Raymond Losserand 14th arr 75014 Paris France,48.8354314,2.321142,Paris,France,48.8534951,2.3483915
446,335 337 High Street Stratford Newham London E15 2TF United Kingdom,51.5373904,-0.0023367,London,United Kingdom,51.4893335,-0.144055085
447,335 337 Old Street Hackney London EC1V 9LL United Kingdom,51.5273442,-0.0796152,London,United Kingdom,51.4893335,-0.144055085
448,336 337 Strand London Westminster Borough London WC2R 1HA United Kingdom,51.511879,-0.118552,City of Westminster,United Kingdom,51.4973206,-0.137149
449,34 37 Bedford Place Bloomsbury Camden London WC1B 5JR United Kingdom,51.5197933,-0.1241844,London,United Kingdom,51.4893335,-0.144055085
450,34 44 Barkston Gardens Kensington and Chelsea London SW5 0EW United Kingdom,51.4920287,-0.1917801,London,United Kingdom,51.4893335,-0.144055085
451,34 Avenue Porte d Asni res 17th arr 75017 Paris France,48.8920485,2.3023791,Paris,France,48.8534951,2.3483915
452,34 Lombard Road Battersea London SW11 3RF United Kingdom,51.4703604,-0.1779869,London,United Kingdom,51.4893335,-0.144055085
453,34 Norfolk Place Paddington Westminster Borough London W2 1QW United Kingdom,51.5162883,-0.1721078,London,United Kingdom,51.4893335,-0.144055085
454,34 Rue de Buci 6th arr 75006 Paris France,48.8535639,2.3360169,Paris,France,48.8534951,2.3483915
455,34 rue de Moscou 8th arr 75008 Paris France,48.8814425,2.3235592,Paris,France,48.8534951,2.3483915
456,34 Rue Fontaine 9th arr 75009 Paris France,48.8825781,2.3334805,Paris,France,48.8534951,2.3483915
457,34 rue Jean Mermoz 8th arr 75008 Paris France,48.8716831,2.3123759,Paris,France,48.8534951,2.3483915
458,34 Rue Viala 15th arr 75015 Paris France,48.8502052,2.289043,Paris,France,48.8534951,2.3483915
459,346 348 Edgware Road Westminster Borough London W2 1EA United Kingdom,51.521148,-0.171346,London,United Kingdom,51.4893335,-0.144055085
460,35 39 St Georges Drive Westminster Borough London SW1V 4DG United Kingdom,51.490724,-0.143868,London,United Kingdom,51.4893335,-0.144055085
461,35 Boulevard de la tour Maubourg 7th arr 75007 Paris France,48.8593152,2.3104179,Paris,France,48.8534951,2.3483915
462,35 Charles Street Mayfair Westminster Borough London W1J 5EB United Kingdom,51.5076899,-0.1471358,London,United Kingdom,51.4893335,-0.144055085
463,35 Ixworth Place Kensington and Chelsea London SW3 3QX United Kingdom,51.4919083,-0.1684398,London,United Kingdom,51.4893335,-0.144055085
464,35 Rue Benjamin Franklin 16th arr 75016 Paris France,48.8613055,2.2862823,Paris,France,48.8534951,2.3483915
465,35 Rue Caumartin 9th arr 75009 Paris France,48.872174,2.328075,Paris,France,48.8534951,2.3483915
466,35 Rue De Berri 8th arr 75008 Paris France,48.8737043,2.3061477,Paris,France,48.8534951,2.3483915
467,35 Rue Jean Goujon 8th arr 75008 Paris France,48.8651994,2.3045076,Paris,France,48.8534951,2.3483915
468,35 Rue La Bruy re 9th arr 75009 Paris France,48.8794682,2.3334957,Paris,France,48.8534951,2.3483915
469,35 St James s Place Westminster Borough London SW1A 1NY United Kingdom,51.5055381,-0.1396885,London,United Kingdom,51.4893335,-0.144055085
470,350 Oxford Street Westminster Borough London W1C 1BY United Kingdom,51.5146025,-0.1481978,London,United Kingdom,51.4893335,-0.144055085
471,354 Queenstown Road Battersea London SW8 4AE United Kingdom,51.4815995,-0.1481053,London,United Kingdom,51.4893335,-0.144055085
472,36 37 Lancaster Gate Westminster Borough London W2 3NA United Kingdom,51.5126488,-0.1803795,London,United Kingdom,51.4893335,-0.144055085
473,36 38 Rue Du Moulin 92170 Paris France,48.8268251,2.2912033,Paris,France,48.8534951,2.3483915
474,36 Great st Helens City of London London EC3A 6AP United Kingdom,51.5149583,-0.0823869,City of London,United Kingdom,51.5156177,-0.0919983
475,36 rue de Saint Quentin 10th arr 75010 Paris France,48.879314,2.3560185,Paris,France,48.8534951,2.3483915
476,36 rue du Grenier Saint Lazare 3rd arr 75003 Paris France,48.8632723,2.352691,Paris,France,48.8534951,2.3483915
477,36 rue Pierre Demours 17th arr 75017 Paris France,48.8811741,2.2948337,Paris,France,48.8534951,2.3483915
478,36 rue Saint Ferdinand 17th arr 75017 Paris France,48.8777895,2.2872498,Paris,France,48.8534951,2.3483915
479,36 Rue Saint Marc 2nd arr 75002 Paris France,48.8708863,2.3382128,Paris,France,48.8534951,2.3483915
480,368 370 Green Lanes London N4 1DA United Kingdom,51.5743549,-0.0977567,London,United Kingdom,51.4893335,-0.144055085
481,37 Avenue De La Motte Picquet 7th arr 75007 Paris France,48.8547161,2.306642,Paris,France,48.8534951,2.3483915
482,37 Avenue Hoche 8th arr 75008 Paris France,48.8756359,2.3004967,Paris,France,48.8534951,2.3483915
483,37 Eccleston Square Westminster Borough London SW1V 1PB United Kingdom,51.4911924,-0.1449474,London,United Kingdom,51.4893335,-0.144055085
484,37 Nottingham Place Westminster Borough London W1U 5LT United Kingdom,51.522143,-0.153385,London,United Kingdom,51.4893335,-0.144055085
485,37 rue Fran ois 1er 8th arr 75008 Paris France,48.8684243,2.3036244,Paris,France,48.8534951,2.3483915
486,372 Strand Westminster Borough London WC2R 0JJ United Kingdom,51.5110993,-0.1208673,London,United Kingdom,51.4893335,-0.144055085
487,38 rue de l Echiquier 10th arr 75010 Paris France,48.8719889,2.3492913,Paris,France,48.8534951,2.3483915
488,38 Rue Du Faubourg Saint Honore 8th arr 75008 Paris France,48.8691758,2.3205807,Paris,France,48.8534951,2.3483915
489,380 Kensington High Street Kensington and Chelsea London W14 8NL United Kingdom,51.4967399,-0.2064723,London,United Kingdom,51.4893335,-0.144055085
490,39 40 Bedford Place Bloomsbury Camden London WC1B 5JT United Kingdom,51.5196124,-0.1239628,London,United Kingdom,51.4893335,-0.144055085
491,39 40 Cleveland Square Westminster Borough London W2 6DA United Kingdom,51.5139692,-0.1828202,London,United Kingdom,51.4893335,-0.144055085
492,39 40 Dorset Square Hotel Westminster Borough London NW1 6QN United Kingdom,51.5226361,-0.1602871,London,United Kingdom,51.4893335,-0.144055085
493,39 Avenue de l Op ra 2nd arr 75002 Paris France,48.8683133,2.3330851,Paris,France,48.8534951,2.3483915
494,39 Avenue de Wagram 17th arr 75017 Paris France,48.8772093,2.2968266,Paris,France,48.8534951,2.3483915
495,39 Buckingham Palace Road Westminster Borough London SW1W 0PS United Kingdom,51.4981471,-0.1436492,London,United Kingdom,51.4893335,-0.144055085
496,39 Coventry Street Westminster Borough London W1D 6BZ United Kingdom,51.5101462,-0.1315061,London,United Kingdom,51.4893335,-0.144055085
497,4 18 Harrington Gardens Kensington and Chelsea London SW7 4LH United Kingdom,51.4935083,-0.1834346,London,United Kingdom,51.4893335,-0.144055085
498,4 Boulevard Brune 14th arr 75014 Paris France,48.827388,2.305478,Paris,France,48.8534951,2.3483915
499,4 Boulevard Raspail 7th arr 75007 Paris France,48.8553117,2.3254628,Paris,France,48.8534951,2.3483915
500,4 Broad Court Bow Street Covent Garden Westminster Borough London WC2B 5QZ United Kingdom,51.5139315,-0.1219893,London,United Kingdom,51.4893335,-0.144055085
501,4 Bryanston St Marble Arch Westminster Borough London W1H 7BY United Kingdom,51.514573,-0.15666,London,United Kingdom,51.4893335,-0.144055085
502,4 Portal Way Gypsy Corner A40 London W3 6RT United Kingdom,51.5210117,-0.2628618,London,United Kingdom,51.4893335,-0.144055085
503,4 Richmond Mews Westminster Borough London W1D 3DH United Kingdom,51.5139805,-0.1337948,London,United Kingdom,51.4893335,-0.144055085
504,4 rue Amsterdam 9th arr 75009 Paris France,48.8759461,2.3270955,Paris,France,48.8534951,2.3483915
505,4 rue Cadet 9th arr 75009 Paris France,48.8742767,2.3426276,Paris,France,48.8534951,2.3483915
506,4 rue d Alger 1st arr 75001 Paris France,48.8648656,2.3295756,Paris,France,48.8534951,2.3483915
507,4 rue d Anjou 8th arr 75008 Paris France,48.8694695,2.3208564,Paris,France,48.8534951,2.3483915
508,4 rue d Artois 8th arr 75008 Paris France,48.8723844,2.3088663,Paris,France,48.8534951,2.3483915
509,4 rue Danton 6th arr 75006 Paris France,48.8528427,2.3422256,Paris,France,48.8534951,2.3483915
510,4 Rue de L Isly 8th arr 75008 Paris France,48.8749511,2.3259532,Paris,France,48.8534951,2.3483915
511,4 rue de la P pini re 8th arr 75008 Paris France,48.897881,2.32346,Paris,France,48.8534951,2.3483915
512,4 Rue De Valois 1st arr 75001 Paris France,48.8630829,2.3378592,Paris,France,48.8534951,2.3483915
513,4 Rue des Petites Ecuries 10th arr 75010 Paris France,48.8730552,2.3540112,Paris,France,48.8534951,2.3483915
514,4 Rue Du Mont Thabor 1st arr 75001 Paris France,48.8654532,2.3295231,Paris,France,48.8534951,2.3483915
515,4 Rue La Boetie 8th arr 75008 Paris France,48.8745879,2.3188143,Paris,France,48.8534951,2.3483915
516,4 rue Salomon de Caus 3rd arr 75003 Paris France,48.8675674,2.3539896,Paris,France,48.8534951,2.3483915
517,40 avenue de Friedland 8th arr 75008 Paris France,48.8743885,2.2980915,Paris,France,48.8534951,2.3483915
518,40 Liverpool Street City of London London EC2M 7QN United Kingdom,51.5172825,-0.0812451,City of London,United Kingdom,51.5156177,-0.0919983
519,40 Marsh Wall Tower Hamlets London E14 9TP United Kingdom,51.5011704,-0.0232607,London,United Kingdom,51.4893335,-0.144055085
520,40 rue de Lille 7th arr 75007 Paris France,48.8585626,2.3299138,Paris,France,48.8534951,2.3483915
521,40 Rue du Commandant Ren Mouchotte 14th arr 75014 Paris France,48.8381079,2.318669,Paris,France,48.8534951,2.3483915
522,40 rue Liancourt 14th arr 75014 Paris France,48.8346811,2.3255098,Paris,France,48.8534951,2.3483915
523,40 Rue Rene Boulanger 10th arr 75010 Paris France,48.8687804,2.3610196,Paris,France,48.8534951,2.3483915
524,40 trinity square City of London London EC3N 4DJ United Kingdom,51.510237,-0.0764428,London,United Kingdom,51.4893335,-0.144055085
525,407 Goldhawk Rd Chiswick London W6 0SA United Kingdom,51.4937409,-0.244896,London,United Kingdom,51.4893335,-0.144055085
526,41 43 Brook Street Westminster Borough London W1K 4HJ United Kingdom,51.5125035,-0.1477438,London,United Kingdom,51.4893335,-0.144055085
527,41 51 Inverness Terrace Westminster Borough London W2 3JN United Kingdom,51.5126758,-0.1867828,London,United Kingdom,51.4893335,-0.144055085
528,41 54 Buckingham Gate Westminster Borough London SW1E 6AF United Kingdom,51.4986732,-0.1376867,London,United Kingdom,51.4893335,-0.144055085
529,41 Avenue Marceau 16th arr 75016 Paris France,48.8686434,2.2984054,Paris,France,48.8534951,2.3483915
530,41 Avenue Pierre 1er de Serbie 8th arr 75008 Paris France,48.8683593,2.3002117,Paris,France,48.8534951,2.3483915
531,41 boulevard Saint Michel 5th arr 75005 Paris France,48.8491801,2.3423357,Paris,France,48.8534951,2.3483915
532,41 Buckingham Palace Road Westminster Borough London SW1W 0PS United Kingdom,51.4981471,-0.1436492,London,United Kingdom,51.4893335,-0.144055085
533,41 Great Cumberland Place Westminster Borough London W1H 7LG United Kingdom,51.515755,-0.1603335,London,United Kingdom,51.4893335,-0.144055085
534,41 Queens Gate Gardens Kensington and Chelsea London SW7 5NB United Kingdom,51.4958184,-0.1813958,London,United Kingdom,51.4893335,-0.144055085
535,41 rue de Clichy 9th arr 75009 Paris France,48.8799239,2.3288332,Paris,France,48.8534951,2.3483915
536,41 Rue Des Ecoles 5th arr 75005 Paris France,48.8488044,2.3469889,Paris,France,48.8534951,2.3483915
537,41 rue Jean Baptiste Pigalle 9th arr 75009 Paris France,48.8800565,2.3342353,Paris,France,48.8534951,2.3483915
538,419 437 Hackney Road London E2 8PP United Kingdom,51.531979,-0.061598,London,United Kingdom,51.4893335,-0.144055085
539,42 46 Chiswell Street City of London London EC1Y 4SB United Kingdom,51.5206309,-0.0915341,London,United Kingdom,51.4893335,-0.144055085
540,42 rue Croix des Petits Champs 1st arr 75001 Paris France,48.8644967,2.3405415,Paris,France,48.8534951,2.3483915
541,42 Rue Des Petites Ecuries 10th arr 75010 Paris France,48.8740668,2.3502172,Paris,France,48.8534951,2.3483915
542,43 51 Wembley Hill Road Brent London HA9 8AU United Kingdom,51.5553678,-0.2864945,London,United Kingdom,51.4893335,-0.144055085
543,43 Rue De l Abb Gr goire 6th arr 75006 Paris France,48.8471891,2.3260138,Paris,France,48.8534951,2.3483915
544,43 Rue des Mathurins 8th arr 75008 Paris France,48.8732068,2.3239015,Paris,France,48.8534951,2.3483915
545,43 rue Monsieur le Prince 6th arr 75006 Paris France,48.8496819,2.3402806,Paris,France,48.8534951,2.3483915
546,43 Worple Road Wimbledon London SW19 4JZ United Kingdom,51.4202661,-0.211268,London,United Kingdom,51.4893335,-0.144055085
547,44 Grosvenor Square Westminster Borough London W1K 2HP United Kingdom,51.510574,-0.1509951,London,United Kingdom,51.4893335,-0.144055085
548,44 rue de Bourgogne 7th arr 75007 Paris France,48.8570275,2.3170282,Paris,France,48.8534951,2.3483915
549,44 Rue Madame 6th arr 75006 Paris France,48.8488608,2.3315257,Paris,France,48.8534951,2.3483915
550,45 Curtain Road Hackney London EC2A 4PJ United Kingdom,51.5237209,-0.0806178,London,United Kingdom,51.4893335,-0.144055085
551,45 Park Lane Westminster Borough London W1K 1PN United Kingdom,51.5063709,-0.1515359,London,United Kingdom,51.4893335,-0.144055085
552,45 Prescot Street City of London London E1 8GP United Kingdom,51.5115509,-0.0714919,London,United Kingdom,51.4893335,-0.144055085
553,45 Rue des Acacias 17th arr 75017 Paris France,48.8777621,2.293177,Paris,France,48.8534951,2.3483915
554,45 St Martin s Lane Westminster Borough London WC2N 4HX United Kingdom,51.5104696,-0.1265824,London,United Kingdom,51.4893335,-0.144055085
555,46 Avenue George V 8th arr 75008 Paris France,48.8710709,2.3013119,Paris,France,48.8534951,2.3483915
556,46 Blackfriars Road Southwark London SE1 8NZ United Kingdom,51.5050165,-0.1049831,London,United Kingdom,51.4893335,-0.144055085
557,46 Rue De Tr vise 9th arr 75009 Paris France,48.8760884,2.3456465,Paris,France,48.8534951,2.3483915
558,46 Westferry Circus Tower Hamlets London E14 8RS United Kingdom,51.5066991,-0.0280208,London,United Kingdom,51.4893335,-0.144055085
559,47 Welbeck Street Westminster Borough London W1G 8DN United Kingdom,51.5180207,-0.1500567,London,United Kingdom,51.4893335,-0.144055085
560,48 Rue De L arbre Sec 1st arr 75001 Paris France,48.8607764,2.3427564,Paris,France,48.8534951,2.3483915
561,49 50 St John s Square Islington London EC1V 4JJ United Kingdom,51.5231564,-0.1035134,London,United Kingdom,51.4893335,-0.144055085
562,49 53 New Road Tower Hamlets London E1 1HH United Kingdom,51.5161286,-0.0624458,London,United Kingdom,51.4893335,-0.144055085
563,49 Avenue Marceau 16th arr 75116 Paris France,48.8691399,2.2981024,Paris,France,48.8534951,2.3483915
564,49 Gloucester Place Marble Arch Westminster Borough London W1U 8JE United Kingdom,51.5182768,-0.1583511,London,United Kingdom,51.4893335,-0.144055085
565,49 Rue La Fayette 9th arr 75009 Paris France,48.8753359,2.3414617,Paris,France,48.8534951,2.3483915
566,49 rue Pierre Charron 8th arr 75008 Paris France,48.8691325,2.3021659,Paris,France,48.8534951,2.3483915
567,5 7 Princes Square Kensington and Chelsea London W2 4NP United Kingdom,51.5127453,-0.1926437,London,United Kingdom,51.4893335,-0.144055085
568,5 7 Rue De Montalembert 7th arr 75007 Paris France,48.8565629,2.3273623,Paris,France,48.8534951,2.3483915
569,5 7 rue Rampon 11th arr 75011 Paris France,48.8662695,2.3668616,Paris,France,48.8534951,2.3483915
570,5 7 Rue Th r se 1st arr 75001 Paris France,48.8816306,2.2992146,Paris,France,48.8534951,2.3483915
571,5 bis rue Massenet 16th arr 75016 Paris France,48.8583127,2.2795075,Paris,France,48.8534951,2.3483915
572,5 Cavell Street Tower Hamlets London E1 2BP United Kingdom,51.5154006,-0.0572364,London,United Kingdom,51.4893335,-0.144055085
573,5 Curzon St Westminster Borough London W1J 5HL United Kingdom,51.5060237,-0.151078,London,United Kingdom,51.4893335,-0.144055085
574,5 Fairmont Avenue Canary Wharf Tower Hamlets London E14 9JB United Kingdom,51.5065578,-0.004514,London,United Kingdom,51.4893335,-0.144055085
575,5 More London Place Tooley Street Southwark London SE1 2BY United Kingdom,51.504575,-0.082675,London,United Kingdom,51.4893335,-0.144055085
576,5 Olympic Way Wembley Brent London HA9 0NP United Kingdom,51.5611271,-0.2787261,London,United Kingdom,51.4893335,-0.144055085
577,5 place de l Od on 6th arr 75006 Paris France,48.8497618,2.3392336,Paris,France,48.8534951,2.3483915
578,5 Rue Belidor 17th arr 75017 Paris France,48.8801757,2.2859534,Paris,France,48.8534951,2.3483915
579,5 rue de Berri 8th arr 75008 Paris France,48.8722019,2.3030866,Paris,France,48.8534951,2.3483915
580,5 rue de la Paix 2nd arr 75002 Paris France,48.8688155,2.3305236,Paris,France,48.8534951,2.3483915
581,5 Rue De Malte 11th arr 75011 Paris France,48.8636049,2.3688352,Paris,France,48.8534951,2.3483915
582,5 Rue de Montyon 9th arr 75009 Paris France,48.8729639,2.3444899,Paris,France,48.8534951,2.3483915
583,5 rue de Ponthieu 8th arr 75008 Paris France,48.8701247,2.311141,Paris,France,48.8534951,2.3483915
584,5 rue des Arquebusiers 3rd arr 75003 Paris France,48.8589516,2.3670407,Paris,France,48.8534951,2.3483915
585,5 rue des Capucines 1st arr 75001 Paris France,48.8684776,2.3298238,Paris,France,48.8534951,2.3483915
586,5 rue du 8 Mai 1945 10th arr 75010 Paris France,48.8758981,2.3590504,Paris,France,48.8534951,2.3483915
587,5 rue Louis Codet 7th arr 75007 Paris France,48.8547869,2.3084819,Paris,France,48.8534951,2.3483915
588,5 Rue Marivaux 2nd arr 75002 Paris France,48.870808,2.3372737,Paris,France,48.8534951,2.3483915
589,5 Rue Saint Roch 1st arr 75001 Paris France,48.8645309,2.3315532,Paris,France,48.8534951,2.3483915
590,5 Threadneedle Street City of London London EC2R 8AY United Kingdom,51.5140208,-0.0854919,City of London,United Kingdom,51.5156177,-0.0919983
591,50 Berners Street Westminster Borough London W1T 3NG United Kingdom,51.5174853,-0.1372109,London,United Kingdom,51.4893335,-0.144055085
592,50 Great Cumberland Place Westminster Borough London W1H 7FD United Kingdom,51.5159214,-0.1598794,London,United Kingdom,51.4893335,-0.144055085
593,50 Lancaster Gate Westminster Borough London W2 3NA United Kingdom,51.5124496,-0.1795215,London,United Kingdom,51.4893335,-0.144055085
594,50 rue de Richelieu 1st arr 75001 Paris France,48.866242,2.3373169,Paris,France,48.8534951,2.3483915
595,50 rue des Bernardins 5th arr 75005 Paris France,48.8481917,2.3490316,Paris,France,48.8534951,2.3483915
596,51 57 rue de Courcelles 8th arr 75008 Paris France,48.8769204,2.3069132,Paris,France,48.8534951,2.3483915
597,51 Gloucester Terrace Westminster Borough London W2 3DQ United Kingdom,51.5131074,-0.1778707,London,United Kingdom,51.4893335,-0.144055085
598,51 Rue de Malte 11th arr 75011 Paris France,48.8659899,2.3674149,Paris,France,48.8534951,2.3483915
599,51 Rue Lauriston 16th arr 75016 Paris France,48.8699731,2.2909401,Paris,France,48.8534951,2.3483915
600,51 rue Letort 18th arr 75018 Paris France,48.8966167,2.3434843,Paris,France,48.8534951,2.3483915
601,52 54 Upper Richmond Road Wandsworth London SW15 2RN United Kingdom,51.4572991,-0.2055425,London,United Kingdom,51.4893335,-0.144055085
602,52 56 Inverness Terrace Westminster Borough London W2 3LB United Kingdom,51.5123968,-0.186124,London,United Kingdom,51.4893335,-0.144055085
603,52 Chiswell Street City of London London EC1Y 4SD United Kingdom,51.5208155,-0.0915319,London,United Kingdom,51.4893335,-0.144055085
604,52 rue Francois 1er 8th arr 75008 Paris France,48.8691409,2.3031503,Paris,France,48.8534951,2.3483915
605,52 rue Jenner 13th arr 75013 Paris France,48.8364204,2.3603332,Paris,France,48.8534951,2.3483915
606,52 Rue Oradour sur Glane 15th arr 75015 Paris France,48.8303023,2.2842872,Paris,France,48.8534951,2.3483915
607,53 59 Kilburn High Road Maida Vale London Camden London NW6 5SB United Kingdom,51.5366053,-0.1919832,London,United Kingdom,51.4893335,-0.144055085
608,53 61 Southwark Bridge Road Southwark London SE1 9HH United Kingdom,51.5054832,-0.0951196,London,United Kingdom,51.4893335,-0.144055085
609,53 Park Lane Westminster Borough London W1K 1QA United Kingdom,51.5074007,-0.1524593,London,United Kingdom,51.4893335,-0.144055085
610,53 Rue Richard Lenoir 11th arr 75011 Paris France,48.8571207,2.3805581,Paris,France,48.8534951,2.3483915
611,53 Upper Street Islington London N1 0UY United Kingdom,51.5360906,-0.1048176,London,United Kingdom,51.4893335,-0.144055085
612,54 Queens Gate Kensington and Chelsea London SW7 5JW United Kingdom,51.4963008,-0.1796853,London,United Kingdom,51.4893335,-0.144055085
613,54 rue Pierre Charron 8th arr 75008 Paris France,48.8689468,2.3026559,Paris,France,48.8534951,2.3483915
614,54 Rue Saint Louis En L Ile 4th arr 75004 Paris France,48.8520377,2.3557092,Paris,France,48.8534951,2.3483915
615,54 Upper Berkeley Street Westminster Borough London W1H 7QR United Kingdom,51.5152892,-0.160898,London,United Kingdom,51.4893335,-0.144055085
616,54 Uxbridge Road Shepherds Bush Hammersmith and Fulham London W12 8LP United Kingdom,51.5045326,-0.2191174,London,United Kingdom,51.4893335,-0.144055085
617,55 57 Avenue Raymond Poincare 16th arr 75016 Paris France,48.8673099,2.2856528,Paris,France,48.8534951,2.3483915
618,55 61 Westbourne Terrace Westminster Borough London W2 3UY United Kingdom,51.5153672,-0.1783271,London,United Kingdom,51.4893335,-0.144055085
619,55 Bld Rochechouart 9th arr 75009 Paris France,48.8819068,2.3410005,Paris,France,48.8534951,2.3483915
620,55 rue Monge 5th arr 75005 Paris France,48.8447938,2.3524462,Paris,France,48.8534951,2.3483915
621,56 57 Frith Street Westminster Borough London W1D 3JG United Kingdom,51.5140329,-0.1320651,City of Westminster,United Kingdom,51.4973206,-0.137149
622,56 rue de Montorgueil 2nd arr 75002 Paris France,48.8648997,2.3469433,Paris,France,48.8534951,2.3483915
623,57 59 Welbeck Street Westminster Borough London W1G 9BL United Kingdom,51.516843,-0.1495574,London,United Kingdom,51.4893335,-0.144055085
624,58 Shepherds Bush Green Hammersmith and Fulham London W12 8QE United Kingdom,51.5039399,-0.2244232,London,United Kingdom,51.4893335,-0.144055085
625,59 Leinster Square Kensington and Chelsea London W2 4PS United Kingdom,51.5133832,-0.1926617,London,United Kingdom,51.4893335,-0.144055085
626,6 8 Rue Duphot 1st arr 75001 Paris France,48.8680055,2.3260075,Paris,France,48.8534951,2.3483915
627,6 Avenue Fr miet 16th arr 75016 Paris France,48.8566336,2.2852607,Paris,France,48.8534951,2.3483915
628,6 Avenue Montaigne 8th arr 75008 Paris France,48.865467,2.3038811,Paris,France,48.8534951,2.3483915
629,6 Avenue Victor Hugo 16th arr 75116 Paris France,48.8729666,2.2926226,Paris,France,48.8534951,2.3483915
630,6 Boulevard Vincent Auriol 13th arr 75013 Paris France,48.8370334,2.372322,Paris,France,48.8534951,2.3483915
631,6 Frith Street Soho Westminster Borough London W1D 3JA United Kingdom,51.5143447,-0.1318157,London,United Kingdom,51.4893335,-0.144055085
632,6 Hercules Road Lambeth London SE1 7DP United Kingdom,51.4982412,-0.1134715,London,United Kingdom,51.4893335,-0.144055085
633,6 Holywell Lane Hackney London EC2A 3ET United Kingdom,51.5241373,-0.0786983,London,United Kingdom,51.4893335,-0.144055085
634,6 rue Balzac 8th arr 75008 Paris France,48.8732785,2.3004174,Paris,France,48.8534951,2.3483915
635,6 Rue Blaise Desgoffe 6th arr 75006 Paris France,48.8457587,2.3243071,Paris,France,48.8534951,2.3483915
636,6 rue Buffault 9th arr 75009 Paris France,48.8750119,2.3416769,Paris,France,48.8534951,2.3483915
637,6 rue Chauveau Lagarde 8th arr 75008 Paris France,48.8714152,2.3239679,Paris,France,48.8534951,2.3483915
638,6 Rue Constance 18th arr 75018 Paris France,48.8854538,2.3335809,Paris,France,48.8534951,2.3483915
639,6 Rue de l Arcade 8th arr 75008 Paris France,48.870994,2.3235329,Paris,France,48.8534951,2.3483915
640,6 Rue De La Tour 16th arr 75016 Paris France,48.8396395,2.2663056,Paris,France,48.8534951,2.3483915
641,6 rue du General Lanrezac 17th arr 75017 Paris France,48.8759855,2.293938,Paris,France,48.8534951,2.3483915
642,6 rue du Helder 9th arr 75009 Paris France,48.8716017,2.3349768,Paris,France,48.8534951,2.3483915
643,6 rue Gustave Charpentier 17th arr 75017 Paris France,48.8820046,2.2818538,Paris,France,48.8534951,2.3483915
644,6 Rue Lecluse 17th arr 75017 Paris France,48.883631,2.3257643,Paris,France,48.8534951,2.3483915
645,6 Rue Pierre Demours 17th arr 75017 Paris France,48.8797513,2.2919634,Paris,France,48.8534951,2.3483915
646,6 Rue Saint Lambert 15th arr 75015 Paris France,48.8382542,2.2903494,Paris,France,48.8534951,2.3483915
647,6 Rue Saint Placide 6th arr 75006 Paris France,48.8498439,2.3244253,Paris,France,48.8534951,2.3483915
648,6 Via Aristotile Fioravanti Garibaldi Station 20154 Milan Italy,45.488764,9.183057,Milano,Italia,45.4641943,9.1896346
649,6 Waterloo Place Westminster Borough London SW1Y 4AN United Kingdom,51.5076044,-0.132266,London,United Kingdom,51.4893335,-0.144055085
650,60 Hyde Park gate Kensington and Chelsea London SW7 5BB United Kingdom,51.5017224,-0.1846243,London,United Kingdom,51.4893335,-0.144055085
651,60 Pentonville Road Islington London N1 9LA United Kingdom,51.5322508,-0.1095714,London,United Kingdom,51.4893335,-0.144055085
652,60 rue Richer 9th arr 75009 Paris France,48.8741002,2.3426357,Paris,France,48.8534951,2.3483915
653,61 Gloucester Road Kensington and Chelsea London SW7 4PE United Kingdom,51.4956883,-0.1827878,London,United Kingdom,51.4893335,-0.144055085
654,61 Lincoln s Inn Fields Camden London WC2A 3JW United Kingdom,51.5160988,-0.1181749,London,United Kingdom,51.4893335,-0.144055085
655,61 Quai De Grenelle 15th arr 75015 Paris France,48.8500283,2.2834126,Paris,France,48.8534951,2.3483915
656,61 rue de la Voute 12th arr 75012 Paris France,48.8465653,2.4102405,Paris,France,48.8534951,2.3483915
657,62 Rue Des Mathurins 8th arr 75008 Paris France,48.8735135,2.3217457,Paris,France,48.8534951,2.3483915
658,62 Rue Saint Dominique 7th arr 75007 Paris France,48.8599998,2.3087425,Paris,France,48.8534951,2.3483915
659,626 Chiswick High St Chiswick London W4 5RY United Kingdom,51.4924184,-0.2784701,London,United Kingdom,51.4893335,-0.144055085
660,628 Western Avenue London W3 0TA United Kingdom,51.527262,-0.282992,London,United Kingdom,51.4893335,-0.144055085
661,63 rue de Richelieu 2nd arr 75002 Paris France,48.8672474,2.33738,Paris,France,48.8534951,2.3483915
662,64 76 Hendon Way London NW2 2NL United Kingdom,51.5634756,-0.2042758,London,United Kingdom,51.4893335,-0.144055085
663,64 Avenue Marceau 8th arr 75008 Paris France,48.8706373,2.2982095,Paris,France,48.8534951,2.3483915
664,64 Boulevard de Grenelle 15th arr 75015 Paris France,48.850448,2.2928845,Paris,France,48.8534951,2.3483915
665,64 Rue Crozatier 12th arr 75012 Paris France,48.849574,2.3798518,Paris,France,48.8534951,2.3483915
666,64 Rue de l Arbre Sec 1st arr 75001 Paris France,48.8612535,2.3426256,Paris,France,48.8534951,2.3483915
667,65 73 Shaftesbury Avenue Westminster Borough London W1D 6EX United Kingdom,51.5121957,-0.1318384,City of Westminster,United Kingdom,51.4973206,-0.137149
668,65 rue Blanche 9th arr 75009 Paris France,48.8820838,2.3315849,Paris,France,48.8534951,2.3483915
669,65 rue des Saints P res 6th arr 75006 Paris France,48.8534026,2.3299043,Paris,France,48.8534951,2.3483915
670,66 Boulevard Barb s 18th arr 75018 Paris France,48.888539,2.3498459,Paris,France,48.8534951,2.3483915
671,66 Great Queen Street Covent Garden Camden London WC2B 5BX United Kingdom,51.5158643,-0.1200625,London,United Kingdom,51.4893335,-0.144055085
672,66 Knightsbridge Westminster Borough London SW1X 7LA United Kingdom,51.5022081,-0.1599428,London,United Kingdom,51.4893335,-0.144055085
673,67 rue Blanche 9th arr 75009 Paris France,48.8823141,2.3316688,Paris,France,48.8534951,2.3483915
674,68 86 Cromwell Road Kensington Kensington and Chelsea London SW7 5BT United Kingdom,51.4953691,-0.1818966,London,United Kingdom,51.4893335,-0.144055085
675,68 Boulevard De Clichy 18th arr 75018 Paris France,48.8836255,2.3340538,Paris,France,48.8534951,2.3483915
676,68 Regent Street West End Mayfair Westminster Borough London W1B 4DY United Kingdom,51.5100916,-0.1359431,City of Westminster,United Kingdom,51.4973206,-0.137149
677,69 Boulevard Victor 15th arr 75015 Paris France,48.8330649,2.2879617,Paris,France,48.8534951,2.3483915
678,69 Vincent Square Westminster Borough London SW1P 2PA United Kingdom,51.4942654,-0.1366026,London,United Kingdom,51.4893335,-0.144055085
679,7 11 Queensberry Place Kensington and Chelsea London SW7 2DL United Kingdom,51.4948416,-0.1772056,London,United Kingdom,51.4893335,-0.144055085
680,7 11 Rue Saint Benoit 6th arr 75006 Paris France,48.8550298,2.3332104,Paris,France,48.8534951,2.3483915
681,7 8 Park Place Westminster Borough London SW1A 1LP United Kingdom,51.5061587,-0.1402803,London,United Kingdom,51.4893335,-0.144055085
682,7 9 Copthall Avenue City of London London EC2R 7NJ United Kingdom,51.5160484,-0.0880181,City of London,United Kingdom,51.5156177,-0.0919983
683,7 9 High Street Kensington Kensington and Chelsea London W8 5NP United Kingdom,51.5021027,-0.187901,London,United Kingdom,51.4893335,-0.144055085
684,7 9 rue du Conservatoire 9th arr 75009 Paris France,48.8732788,2.3466576,Paris,France,48.8534951,2.3483915
685,7 9 Rue Pierre Chausson 10th arr 75010 Paris France,48.8708419,2.3605864,Paris,France,48.8534951,2.3483915
686,7 Boulevard Bourdon 4th arr 75004 Paris France,48.8482842,2.3657251,Paris,France,48.8534951,2.3483915
687,7 Gracechurch Street City of London London EC3V 0DR United Kingdom,51.5127964,-0.0847973,City of London,United Kingdom,51.5156177,-0.0919983
688,7 Montague Street Bloomsbury Camden London WC1B 5BP United Kingdom,51.5196913,-0.1254243,London,United Kingdom,51.4893335,-0.144055085
689,7 Pepys Street City of London London EC3N 4AF United Kingdom,51.5108412,-0.0780581,City of London,United Kingdom,51.5156177,-0.0919983
690,7 rue Casimir Delavigne 6th arr 75006 Paris France,48.8501522,2.3392782,Paris,France,48.8534951,2.3483915
691,7 rue Cl ment Marot 8th arr 75008 Paris France,48.8671391,2.3038447,Paris,France,48.8534951,2.3483915
692,7 rue d Argenson 8th arr 75008 Paris France,48.8746066,2.3167195,Paris,France,48.8534951,2.3483915
693,7 rue de Berri 8th arr 75008 Paris France,48.8723438,2.3033378,Paris,France,48.8534951,2.3483915
694,7 Rue De L h tel Colbert 5th arr 75005 Paris France,48.8515198,2.3486511,Paris,France,48.8534951,2.3483915
695,7 Rue des Petits H tels 10th arr 75010 Paris France,48.8772493,2.3543043,Paris,France,48.8534951,2.3483915
696,7 Rue Du Bourg L abb 3rd arr 75003 Paris France,48.863828,2.3519345,Paris,France,48.8534951,2.3483915
697,7 rue du G n ral de Larminat 15th arr 75015 Paris France,48.8503276,2.2982022,Paris,France,48.8534951,2.3483915
698,7 Rue Magellan 8th arr 75008 Paris France,48.8701887,2.2997281,Paris,France,48.8534951,2.3483915
699,7 Rue Paul Albert 18th arr 75018 Paris France,48.886687,2.3449332,Paris,France,48.8534951,2.3483915
700,7 Rue Rennequin 17th arr 75017 Paris France,48.8808779,2.2989756,Paris,France,48.8534951,2.3483915
701,7 Western Gateway Royal Victoria Dock Newham London E16 1AA United Kingdom,51.5077198,0.0229805,London,United Kingdom,51.4893335,-0.144055085
702,70 avenue des Champs Elysees 8th arr 75008 Paris France,48.8711365,2.3050482,Paris,France,48.8534951,2.3483915
703,71 79 Southwark Street Southwark London SE1 0JA United Kingdom,51.5052587,-0.099176,London,United Kingdom,51.4893335,-0.144055085
704,71 Rue de Charonne 11th arr 75011 Paris France,48.8536854,2.3805796,Paris,France,48.8534951,2.3483915
705,71 Vincent Square Westminster Borough London SW1P 2PA United Kingdom,51.4944319,-0.1363756,London,United Kingdom,51.4893335,-0.144055085
706,74 rue Amelot 11th arr 75011 Paris France,48.8605219,2.3680239,Paris,France,48.8534951,2.3483915
707,75 Gower Street Camden London WC1E 6HJ United Kingdom,51.5220522,-0.132414,London,United Kingdom,51.4893335,-0.144055085
708,78 82 Westbourne Terrace Westminster Borough London W2 6QA United Kingdom,51.5157316,-0.1802179,London,United Kingdom,51.4893335,-0.144055085
709,78 84 Sussex Gardens Westminster Borough London W2 1UH United Kingdom,51.5166887,-0.1706147,London,United Kingdom,51.4893335,-0.144055085
710,78 Bis Avenue Marceau 8th arr 75008 Paris France,48.8719212,2.2971404,Paris,France,48.8534951,2.3483915
711,78 Rue Blomet 15th arr 75015 Paris France,48.8416787,2.3022862,Paris,France,48.8534951,2.3483915
712,79 81 avenue du Maine 14th arr 75014 Paris France,48.8382916,2.3230188,Paris,France,48.8534951,2.3483915
713,79 rue Saint Dominique 7th arr 75007 Paris France,48.8595985,2.3088076,Paris,France,48.8534951,2.3483915
714,8 10 Queensberry Place Kensington and Chelsea London SW7 2EA United Kingdom,51.4947754,-0.177789,London,United Kingdom,51.4893335,-0.144055085
715,8 10 Rue F licien David 16th arr 75016 Paris France,48.8506499,2.2750873,Paris,France,48.8534951,2.3483915
716,8 12 Manchester Street Westminster Borough London W1U 4DG United Kingdom,51.5188,-0.153839,London,United Kingdom,51.4893335,-0.144055085
717,8 14 Talbot Sq Paddington Westminster Borough London W2 1TS United Kingdom,51.5151149,-0.1743857,London,United Kingdom,51.4893335,-0.144055085
718,8 18 London Bridge St Southwark London SE1 9SG United Kingdom,51.5052188,-0.088166,London,United Kingdom,51.4893335,-0.144055085
719,8 Avenue Rapp 7th arr 75007 Paris France,48.8605031,2.3006606,Paris,France,48.8534951,2.3483915
720,8 Balderton Street Brown Hart Gardens Westminster Borough London W1K 6TF United Kingdom,51.513055,-0.152257,London,United Kingdom,51.4893335,-0.144055085
721,8 bis Avenue de la Soeur Rosalie 13th arr 75013 Paris France,48.8321231,2.3536172,Paris,France,48.8534951,2.3483915
722,8 Boulevard Beaumarchais 11th arr 75011 Paris France,48.8546989,2.3691899,Paris,France,48.8534951,2.3483915
723,8 Northumberland Avenue Westminster Borough London WC2N 5BY United Kingdom,51.506935,-0.126012,London,United Kingdom,51.4893335,-0.144055085
724,8 Pembridge Garden Kensington and Chelsea London W2 4DU United Kingdom,51.5095259,-0.1967234,London,United Kingdom,51.4893335,-0.144055085
725,8 Place Marguerite de Navarre 1st arr 75001 Paris France,48.8607299,2.3465326,Paris,France,48.8534951,2.3483915
726,8 Rue Cambon 1st arr 75001 Paris France,48.8668228,2.3257729,Paris,France,48.8534951,2.3483915
727,8 rue Chambiges 8th arr 75008 Paris France,48.8668048,2.3039465,Paris,France,48.8534951,2.3483915
728,8 rue d Anjou 8th arr 75008 Paris France,48.8698184,2.3208729,Paris,France,48.8534951,2.3483915
729,8 Rue De Bellechasse 7th arr 75007 Paris France,48.8597024,2.3239701,Paris,France,48.8534951,2.3483915
730,8 rue de Verneuil 7th arr 75007 Paris France,48.8573706,2.3314669,Paris,France,48.8534951,2.3483915
731,8 rue Fr d ric Bastiat 8th arr 75008 Paris France,48.8728492,2.3073663,Paris,France,48.8534951,2.3483915
732,8 Rue Francois 1Er 8th arr 75008 Paris France,48.8657687,2.3090386,Paris,France,48.8534951,2.3483915
733,8 Rue Jean Goujon 8th arr 75008 Paris France,48.866676,2.3089908,Paris,France,48.8534951,2.3483915
734,8 rue Laferriere 9th arr 75009 Paris France,48.8785454,2.3384866,Paris,France,48.8534951,2.3483915
735,80 86 Belgrave Road Westminster Borough London SW1V 2BJ United Kingdom,51.4901051,-0.1381355,London,United Kingdom,51.4893335,-0.144055085
736,81 103 Euston Street Camden London NW1 2EZ United Kingdom,51.5265353,-0.1361682,London,United Kingdom,51.4893335,-0.144055085
737,81 boulevard Gouvion Saint Cyr 17th arr 75017 Paris France,48.8794646,2.2849548,Paris,France,48.8534951,2.3483915
738,81 Great Eastern Street Islington London EC2A 3HU United Kingdom,51.5255136,-0.082927,London,United Kingdom,51.4893335,-0.144055085
739,81 Jermyn Street Westminster Borough London SW1Y 6JF United Kingdom,51.5077459,-0.1378733,London,United Kingdom,51.4893335,-0.144055085
740,82 Dalston Lane Hackney London E8 3AH United Kingdom,51.5460628,-0.0700817,London,United Kingdom,51.4893335,-0.144055085
741,82 Gloucester Place Westminster Borough London W1U 6HN United Kingdom,51.5195857,-0.1584803,London,United Kingdom,51.4893335,-0.144055085
742,83 avenue Kl ber 16th arr 75016 Paris France,48.8647019,2.2886425,Paris,France,48.8534951,2.3483915
743,84 King Street Hammersmith and Fulham London W6 0QW United Kingdom,51.4926269,-0.2288598,London,United Kingdom,51.4893335,-0.144055085
744,85 87 RUE DES ARCHIVES 3rd arr 75003 Paris France,48.8636168,2.3607998,Paris,France,48.8534951,2.3483915
745,85 Rue De Bercy 12th arr 75012 Paris France,48.8384558,2.3805885,Paris,France,48.8534951,2.3483915
746,86 88 Clerkenwell Road Islington London EC1M 5RJ United Kingdom,51.522672,-0.1036841,London,United Kingdom,51.4893335,-0.144055085
747,86 Park Lane Westminster Borough London W1K 7TN United Kingdom,51.509841,-0.1552193,London,United Kingdom,51.4893335,-0.144055085
748,86 Quai D Austerlitz 13th arr 75013 Paris France,48.8427364,2.3672171,Paris,France,48.8534951,2.3483915
749,86 Rue Saint Denis 1st arr 75001 Paris France,48.8622723,2.3495707,Paris,France,48.8534951,2.3483915
750,88 Bis Avenue Kl ber 16th arr 75016 Paris France,48.8663089,2.289609,Paris,France,48.8534951,2.3483915
751,88 Holland Road Kensington and Chelsea London W14 8BN United Kingdom,51.4992789,-0.2090733,London,United Kingdom,51.4893335,-0.144055085
752,88 Queens Gate Kensington and Chelsea London SW7 5AB United Kingdom,51.4933372,-0.1788931,London,United Kingdom,51.4893335,-0.144055085
753,88 rue du Faubourg Poissoni re 10th arr 75010 Paris France,48.8776756,2.3493159,Paris,France,48.8534951,2.3483915
754,9 11 rue Balzac 8th arr 75008 Paris France,48.8738672,2.3005894,Paris,France,48.8534951,2.3483915
755,9 11 Sydney Street Kensington and Chelsea London SW3 6PU United Kingdom,51.4910062,-0.1717691,London,United Kingdom,51.4893335,-0.144055085
756,9 13 Bloomsbury Street Nr Covent Garden Camden London WC1B 3QD United Kingdom,51.517608,-0.1276253,London,United Kingdom,51.4893335,-0.144055085
757,9 Carrefour de l Od on 6th arr 75006 Paris France,48.8519208,2.338878,Paris,France,48.8534951,2.3483915
758,9 Knaresborough Place Kensington and Chelsea London SW5 0TP United Kingdom,51.4940285,-0.1910497,London,United Kingdom,51.4893335,-0.144055085
759,9 Place Boulnois 17th arr 75017 Paris France,48.8794223,2.2957628,Paris,France,48.8534951,2.3483915
760,9 Rue de Constantinople 8th arr 75008 Paris France,48.8796596,2.3209155,Paris,France,48.8534951,2.3483915
761,9 rue de la Michodi re 2nd arr 75002 Paris France,48.8696173,2.3346428,Paris,France,48.8534951,2.3483915
762,9 Rue De Li ge 9th arr 75009 Paris France,48.8795947,2.3280695,Paris,France,48.8534951,2.3483915
763,9 Rue de Washington 8th arr 75008 Paris France,48.8726814,2.3020866,Paris,France,48.8534951,2.3483915
764,9 Rue du Sommerard 5th arr 75005 Paris France,48.8497553,2.3467616,Paris,France,48.8534951,2.3483915
765,9 rue frochot 9th arr 75009 Paris France,48.8816073,2.3371648,Paris,France,48.8534951,2.3483915
766,9 rue Git le Coeur 6th arr 75006 Paris France,48.8538608,2.3429487,Paris,France,48.8534951,2.3483915
767,9 rue Gr goire de Tours 6th arr 75006 Paris France,48.853299,2.337993,Paris,France,48.8534951,2.3483915
768,9 Rue Littr 6th arr 75006 Paris France,48.8454447,2.3242814,Paris,France,48.8534951,2.3483915
769,9 Rue Sainte Beuve 6th arr 75006 Paris France,48.8438998,2.3294858,Paris,France,48.8534951,2.3483915
770,9 Villa de Saxe 7th arr 75007 Paris France,48.849758,2.3095213,Paris,France,48.8534951,2.3483915
771,90 92 Lancaster Gate Westminster Borough London W2 3NR United Kingdom,51.5112451,-0.1808938,London,United Kingdom,51.4893335,-0.144055085
772,92 rue de Vaugirard 6th arr 75006 Paris France,48.846837,2.3258066,Paris,France,48.8534951,2.3483915
773,92 Rue Du Cherche Midi 6th arr 75006 Paris France,48.8474426,2.3223783,Paris,France,48.8534951,2.3483915
774,92 Rue La Boetie 8th arr 75008 Paris France,48.8724945,2.3091549,Paris,France,48.8534951,2.3483915
775,92 Southampton Row Camden London WC1B 4BH United Kingdom,51.5201065,-0.1221393,London,United Kingdom,51.4893335,-0.144055085
776,93 Rue de Lille 7th arr 75007 Paris France,48.8603599,2.3230778,Paris,France,48.8534951,2.3483915
777,95 Rue de Richelieu 2nd arr 75002 Paris France,48.8710895,2.3393461,Paris,France,48.8534951,2.3483915
778,97 avenue des Ternes 17th arr 75017 Paris France,48.8803479,2.2858242,Paris,France,48.8534951,2.3483915
779,97 Cromwell Road Kensington and Chelsea London SW7 4DN United Kingdom,51.4942305,-0.1851141,London,United Kingdom,51.4893335,-0.144055085
780,97 Great Russell Street Bloomsbury Camden London WC1B 3LB United Kingdom,51.5179725,-0.1280495,London,United Kingdom,51.4893335,-0.144055085
781,97 rue La Bo tie 8th arr 75008 Paris France,48.874853,2.3245798,Paris,France,48.8534951,2.3483915
782,97 rue Lauriston 16th arr 75016 Paris France,48.8672694,2.2878666,Paris,France,48.8534951,2.3483915
783,98 Avenue d Italie 13th arr 75013 Paris France,48.8252307,2.3569005,Paris,France,48.8534951,2.3483915
784,98 Rue De Clery 2nd arr 75002 Paris France,48.8694768,2.3515065,Paris,France,48.8534951,2.3483915
785,99 Bis Rue De Rome 17th arr 75017 Paris France,48.8837472,2.3186342,Paris,France,48.8534951,2.3483915
786,Albany Street London NW1 3UP United Kingdom,51.5298597,-0.1444623,London,United Kingdom,51.4893335,-0.144055085
787,Albert Cuypstraat 2 6 Oud Zuid 1072 CT Amsterdam Netherlands,52.3544507,4.8875036,Amsterdam,Nederland,52.3730796,4.8924534
788,Aldwych Westminster Borough London WC2B 4DD United Kingdom,51.5131979,-0.1174504,City of Westminster,United Kingdom,51.4973206,-0.137149
789,Aletta Jacobslaan 7 Slotervaart 1066 BP Amsterdam Netherlands,52.3466449,4.8310984,Amsterdam,Nederland,52.3730796,4.8924534
790,Althanstra e 5 09 Alsergrund 1090 Vienna Austria,48.2264063,16.3600628,Wien,Österreich,48.2083537,16.3725042
791,Alzaia Naviglio Grande 8 Navigli 20144 Milan Italy,45.4521067,9.1758135,Milano,Italia,45.4641943,9.1896346
792,Am Heumarkt 35 37 03 Landstra e 1030 Vienna Austria,48.1996129,16.3773546,Wien,Österreich,48.2083537,16.3725042
793,Am Hof 2 01 Innere Stadt 1010 Vienna Austria,48.2105243,16.3683592,Wien,Österreich,48.2083537,16.3725042
794,Am Stadtpark 1 03 Landstra e 1030 Vienna Austria,48.2062268,16.3833767,Wien,Österreich,48.2083537,16.3725042
795,Ample 1 Pla a Duc de Medinaceli Ciutat Vella 08002 Barcelona Spain,41.378751,2.17873,Barcelona,España,41.3828939,2.1774322
796,Amstelstraat 17 Amsterdam City Center 1017 DA Amsterdam Netherlands,52.3663466,4.8985764,Amsterdam,Nederland,52.3730796,4.8924534
797,Angli 60 Sarri St Gervasi 08017 Barcelona Spain,41.4031654,2.1231637,Barcelona,España,41.3828939,2.1774322
798,Anna van den Vondelstraat 6 Oud West 1054 GZ Amsterdam Netherlands,52.3607413,4.8695315,Amsterdam,Nederland,52.3730796,4.8924534
799,Annagasse 16 01 Innere Stadt 1010 Vienna Austria,48.2040859,16.3725046,Wien,Österreich,48.2083537,16.3725042
800,Annagasse 7 01 Innere Stadt 1010 Vienna Austria,48.204183,16.3726664,Wien,Österreich,48.2083537,16.3725042
801,Apollolaan 101 105 Oud Zuid 1077 AN Amsterdam Netherlands,52.3504558,4.8770194,Amsterdam,Nederland,52.3730796,4.8924534
802,Apollolaan 123 125 Oud Zuid 1077 AP Amsterdam Netherlands,52.350396,4.8756404,Amsterdam,Nederland,52.3730796,4.8924534
803,Apollolaan 138 Oud Zuid 1077 BG Amsterdam Netherlands,52.351381,4.872723,Amsterdam,Nederland,52.3730796,4.8924534
804,Apollolaan 2 Oud Zuid 1077 BA Amsterdam Netherlands,52.3486098,4.8844292,Amsterdam,Nederland,52.3730796,4.8924534
805,Arcs 10 Ciutat Vella 08002 Barcelona Spain,41.3846637,2.1740902,Barcelona,España,41.3828939,2.1774322
806,Arend Janszoon Ernststraat 577 Zuideramstel 1082 LD Amsterdam Netherlands,52.3312406,4.8774466,Amsterdam,Nederland,52.3730796,4.8924534
807,Aribau 33 Eixample 08011 Barcelona Spain,41.3873478,2.1603987,Barcelona,España,41.3828939,2.1774322
808,Aribau 54 Eixample 08011 Barcelona Spain,41.3880549,2.1599602,Barcelona,España,41.3828939,2.1774322
809,Arlandaweg 10 Westpoort 1043 EW Amsterdam Netherlands,52.3856494,4.834443,Amsterdam,Nederland,52.3730796,4.8924534
810,Aspernbr ckengasse 1 02 Leopoldstadt 1020 Vienna Austria,48.2134246,16.3831309,Wien,Österreich,48.2083537,16.3725042
811,Auerspergstra e 9 08 Josefstadt 1080 Vienna Austria,48.2083518,16.354532,Wien,Österreich,48.2083537,16.3725042
812,Ausi s Marc 34 Eixample 08010 Barcelona Spain,41.3919114,2.1765438,Barcelona,España,41.3828939,2.1774322
813,Avenida Bogatell 64 68 Sant Mart 08005 Barcelona Spain,41.393227,2.1927427,Barcelona,España,41.3828939,2.1774322
814,Avenida Diagonal 1 Sant Mart 08019 Barcelona Spain,41.4109715,2.2186535,Barcelona,España,41.3828939,2.1774322
815,Avenida Diagonal 201 Sant Mart 08018 Barcelona Spain,41.4038774,2.1911894,Barcelona,España,41.3828939,2.1774322
816,Avenida Diagonal 205 Sant Mart 08018 Barcelona Spain,41.4036219,2.1902808,Barcelona,España,41.3828939,2.1774322
817,Avenida Diagonal 555 Les Corts 08029 Barcelona Spain,41.3899609,2.135684,Barcelona,España,41.3828939,2.1774322
818,Avenida Diagonal 568 Sarri St Gervasi 08021 Barcelona Spain,41.3944029,2.150194,Barcelona,España,41.3828939,2.1774322
819,Avenida Diagonal 570 Sarri St Gervasi 08021 Barcelona Spain,41.3941338,2.1489569,Barcelona,España,41.3828939,2.1774322
820,Avenida Diagonal 589 591 Les Corts 08014 Barcelona Spain,41.388682,2.1316368,Barcelona,España,41.3828939,2.1774322
